id,ident,iata_code,name,latitude_deg,longitude_deg,continent,iso_country,iso_region,municipality,local_code
6924,07FA,OCA,Ocean Reef Club Airport,25.325399,-80.274803,,US,US-FL,Key Largo,07FA
12243,5A8,WKK,Aleknagik / New Airport,59.2826004,-158.6179962,,US,US-AK,Aleknagik,5A8
336537,AG-0001,BBQ,Burton-Nibbs International Airport,17.621194,-61.798347,,AG,AG-10,Codrington,
3,AGGH,HIR,Honiara International Airport,-9.428,160.054993,OC,SB,SB-GU,Honiara,
4,AGGM,MUA,Munda Airport,-8.32797,157.263,OC,SB,SB-WE,Munda,
8,ANYN,INU,Nauru International Airport,-0.547893,166.919525,OC,NR,NR-14,Yaren,
601314,AT98,WFR,[Duplicate] Wolf's Fang Runway,-71.5264,8.799459,AN,AQ,AQ-U-A,Queen Maud Island,
314558,AXF,AXF,Alxa Left Banner Bayanhot Airport,38.748317,105.58416,AS,CN,CN-15,Bayanhot,
35179,AYBA,VMU,Baimuru Airport,-7.496955,144.821756,OC,PG,PG-GPK,Baimuru,BMU
53,AYBK,BUA,Buka Airport,-5.422299,154.672698,OC,PG,PG-NSB,Buka Island,
35180,AYBM,OPU,Balimo Airport,-8.050000191,142.9329987,OC,PG,PG-WPD,Balimo,BLI
54,AYCH,CMU,Chimbu Airport,-6.024290085,144.970993,OC,PG,PG-CPK,Kundiawa,
55,AYDU,DAU,Daru Airport,-9.08676,143.207993,OC,PG,PG-WPD,Daru,
56,AYGA,GKA,Goroka Airport,-6.081689835,145.3919983,OC,PG,PG-EHG,Goronka,
57,AYGN,GUR,Gurney Airport,-10.3114996,150.3339996,OC,PG,PG-MBA,Gurney,
58,AYGR,PNP,Girua Airport,-8.80453968,148.3090057,OC,PG,PG-NPP,Popondetta,
59,AYHK,HKN,Hoskins Airport,-5.463846,150.407327,OC,PG,PG-WBK,Kimbe,
60,AYKM,KMA,Kerema Airport,-7.963610172,145.7709961,OC,PG,PG-GPK,Kerema,
61,AYKV,KVG,Kavieng Airport,-2.579400063,150.8079987,OC,PG,PG-NIK,Kavieng,
62,AYMD,MAG,Madang Airport,-5.207079887,145.7890015,OC,PG,PG-MPM,Madang,
63,AYMH,HGU,Mount Hagen Kagamuga Airport,-5.828212,144.299412,OC,PG,PG-WHM,Mount Hagen,
64,AYMN,MDU,Mendi Airport,-6.14774,143.656998,OC,PG,PG-SHM,Mendi,
65,AYMO,MAS,Momote Airport,-2.06189,147.423996,OC,PG,PG-MRL,Manus Island,
66,AYNZ,LAE,Nadzab Tomodachi International Airport,-6.567995,146.726544,OC,PG,PG-MPL,Lae,
67,AYPY,POM,Port Moresby Jacksons International Airport,-9.443380356,147.2200012,OC,PG,PG-NCD,Port Moresby,
68,AYTK,RAB,Tokua Airport,-4.34046,152.380005,OC,PG,PG-EBR,Kokopo,
69,AYVN,VAI,Vanimo Airport,-2.6926,141.3028,OC,PG,PG-SAN,Vanimo,
70,AYWD,WBM,Wapenamanda Airport,-5.635293,143.892231,OC,PG,PG-EPW,Wapenamanda,
71,AYWK,WWK,Wewak International Airport,-3.583830118,143.6690063,OC,PG,PG-ESW,Wewak,
44941,AZ-0001,ZXT,Zabrat Airport,40.494884,49.977065,AS,AZ,AZ-BA,Zabrat,
27301,BCW,BCW,Benguera Island Airport,-21.8533,35.438301,AF,MZ,MZ-I,Benguera Island,
111,BG-JAM,JAM,Bezmer Air Base,42.454899,26.3522,EU,BG,BG-28,Bezmer,
31697,BGAA,JEG,Aasiaat Airport,68.721802,-52.784698,,GL,GL-QK,Aasiaat,
30839,BGCO,CNP,Neerlerit Inaat Airport,70.743103,-22.650499,,GL,GL-SE,Neerlerit Inaat,
114,BGGH,GOH,Nuuk International Airport,64.191066,-51.67914,,GL,GL-SE,Nuuk,
31694,BGJN,JAV,Ilulissat Airport,69.243202,-51.057098,,GL,GL-AV,Ilulissat,
31786,BGKK,KUS,Kulusuk Airport,65.573601,-37.1236,,GL,GL-SE,Kulusuk,
32004,BGQQ,NAQ,Qaanaaq Airport,77.488602,-69.388702,,GL,GL-AV,Qaanaaq,
115,BGSF,SFJ,Kangerlussuaq International Airport,67.010446,-50.715294,,GL,GL-QA,Kangerlussuaq,
31700,BGSS,JHS,Sisimiut Airport,66.951302,-53.729301,,GL,GL-QA,Sisimiut,
116,BGTL,THU,Pituffik Space Base,76.53063,-68.700541,,GL,GL-AV,Pituffik,
117,BIAR,AEY,Akureyri International Airport,65.656573,-18.072018,EU,IS,IS-6,Akureyri,
118,BIBD,BIU,Bildudalur Airport,65.641296,-23.5462,EU,IS,IS-4,Bildudalur,
119,BIEG,EGS,Egilsstaðir Airport,65.28330231,-14.40139961,EU,IS,IS-7,Egilsstaðir,
31549,BIGR,GRY,Grímsey Airport,66.5458,-18.0173,EU,IS,IS-6,Grímsey/Sandvík,
120,BIHN,HFN,Hornafjörður Airport,64.295601,-15.2272,EU,IS,IS-8,Höfn,
121,BIHU,HZK,Húsavík Airport,65.952301,-17.426001,EU,IS,IS-6,Húsavík,
122,BIIS,IFJ,Ísafjörður Airport,66.058098,-23.1353,EU,IS,IS-4,Ísafjörður,
123,BIKF,KEF,Keflavik International Airport,63.985001,-22.6056,EU,IS,IS-2,Reykjavík,
125,BIRK,RKV,Reykjavík Domestic Airport,64.128732,-21.93759,EU,IS,IS-1,Reykjavík,
31973,BIRL,MVA,Mývatn Airport,65.6558,-16.9181,EU,IS,IS-6,Myvatn,
126,BISI,SIJ,Siglufjörður Airport,66.137847,-18.908157,EU,IS,IS-6,Siglufjörður,
128,BIVM,VEY,Vestmannaeyjar Airport,63.42430115,-20.27890015,EU,IS,IS-8,Vestmannaeyjar,
32593,BIVO,VPN,Vopnafjörður Airport,65.720596,-14.8506,EU,IS,IS-7,Vopnafjörður,
4614,BKPR,PRN,Priština Adem Jashari International Airport,42.5728,21.035801,EU,XK,XK-01,Prishtina,
333222,BR-0569,VDC,Glauber de Andrade Rocha Airport,-14.907885,-40.914804,SA,BR,BR-BA,Vitória da Conquista,BA0005
353792,BTZ,BTZ,Betong International Airport,5.79,101.15,AS,TH,TH-95,Betong,
34946,BY-0001,TXC,Orsha Airport - Balbasovo Air Base,54.439999,30.2967,EU,BY,BY-VI,Orsha,
30861,BZ-CUK,CUK,Caye Caulker Airport,17.735015,-88.032862,,BZ,BZ-BZ,Caye Caulker,
30867,BZ-CYC,CYC,Caye Chapel Airport,17.683792,-88.044985,,BZ,BZ-BZ,Caye Chapel,
42209,BZ-CZH,CZH,Corozal Airport,18.3822,-88.411903,,BZ,BZ-CZL,Corozal,
42207,BZ-DGA,DGA,Dangriga Airport,16.98251,-88.230988,,BZ,BZ-SC,Dangriga,
42210,BZ-SJX,SJX,Sartaneja Airport,18.3561,-88.130798,,BZ,BZ-CZL,Sartaneja,
32370,BZ-SPR,SPR,John Greif II Airport,17.9139,-87.9711,,BZ,BZ-CY,San Pedro,
42215,BZ-TZA,TZA,Sir Barry Bowen Municipal Airport,17.517239,-88.195775,,BZ,BZ-BZ,Belize City,
27300,BZB,BZB,Bazaruto Island Airport,-21.5411,35.4729,AF,MZ,MZ-I,Bazaruto Island,
624,CAJ4,YAA,Anahim Lake Airport,52.451501,-125.303776,,CA,CA-BC,Anahim Lake,CAJ4
643,CAT4,XQU,Qualicum Beach Airport,49.337456,-124.393086,,CA,CA-BC,Qualicum Beach,CAT4
657,CAZ5,YZA,Cache Creek-Ashcroft Regional Airport,50.775258,-121.321314,,CA,CA-BC,Cache Creek,CAZ5
664,CBBC,ZEL,Bella Bella (Campbell Island) Airport,52.185001,-128.156994,,CA,CA-BC,Bella Bella,CBBC
323881,CN-0062,BZX,Bazhong Enyang Airport,31.73842,106.644872,AS,CN,CN-51,Bazhong,BZX
44157,CN-0079,HSC,Shaoguan Danxia Airport,24.9786,113.420998,AS,CN,CN-44,Shaoguan,
44159,CN-0081,JGS,Jinggangshan Airport,26.856899,114.737,AS,CN,CN-36,Ji'an,
44195,CN-0117,HNG,Hainanzhou Gonghe Airport,36.3367,100.480003,AS,CN,CN-63,Hainan (Gonghe),
44232,CN-0154,JNH,Jiaxing Nanhu Airport,30.698056,120.663056,AS,CN,CN-33,"Xiuzhou, Hangzhou",
348150,CN-0178,WHN,Wuhan Hannan Municipal Airport,30.25521,114.062805,AS,CN,CN-42,Wuhan (Hannan),
350882,CN-0236,DDR,Shigatse Tingri Airport,28.604567,86.798,AS,CN,CN-54,Xigazê (Dingri),
350883,CN-0237,HQL,Tashikuergan Hongqilafu Airport,37.661333,75.288877,AS,CN,CN-65,Tashikuergan,
350949,CN-0253,JDE,Jiande Qiandaohu General Airport,29.360905,119.180829,AS,CN,CN-33,Hangzhou,
355511,CN-0354,APJ,Ali Pulan Airport,30.397898,81.13317,AS,CN,CN-54,Burang Town,
525773,CN-0421,ZAT,Zhaotong Zhaoyang Airport （Not fully opened),27.205843,103.691511,AS,CN,CN-53,Zhaotong,
598595,CN-0476,BFY,Bengbu Tenghu Airport,33.166292,117.058344,AS,CN,CN-34,Bengbu,
1654,CYAG,YAG,Fort Frances Municipal Airport,48.655749,-93.44349,,CA,CA-ON,Fort Frances,
1655,CYAH,YAH,La Grande-4 Airport,53.75469971,-73.6753006,,CA,CA-QC,La Grande-4,
1657,CYAM,YAM,Sault Ste Marie Airport,46.483216,-84.508467,,CA,CA-ON,Sault Ste Marie,
1658,CYAQ,XKS,Kasabonika Airport,53.52470016,-88.64279938,,CA,CA-ON,Kasabonika,
1665,CYAY,YAY,St. Anthony Airport,51.391909,-56.08321,,CA,CA-NL,St. Anthony,
1666,CYAZ,YAZ,Tofino / Long Beach Airport,49.079833,-125.775583,,CA,CA-BC,Tofino,
1669,CYBC,YBC,Baie-Comeau Airport,49.1325,-68.204399,,CA,CA-QC,Baie-Comeau,YBC
1670,CYBD,QBC,Bella Coola Airport,52.387501,-126.596001,,CA,CA-BC,Bella Coola,
1672,CYBF,YBY,Bonnyville Airport,54.304199,-110.744003,,CA,CA-AB,Bonnyville,
1673,CYBG,YBG,Saguenay-Bagotville Airport,48.330123,-70.992012,,CA,CA-QC,Saguenay,
1674,CYBK,YBK,Baker Lake Airport,64.29889679,-96.07779694,,CA,CA-NU,Baker Lake,
1675,CYBL,YBL,Campbell River Airport,49.950802,-125.271004,,CA,CA-BC,Campbell River,YBL
1678,CYBR,YBR,Brandon Municipal Airport,49.91,-99.951897,,CA,CA-MB,Brandon,
1683,CYBX,YBX,Lourdes-de-Blanc-Sablon Airport,51.4436,-57.185299,,CA,CA-QC,Blanc-Sablon,
1685,CYCB,YCB,Cambridge Bay Airport,69.10810089,-105.1380005,,CA,CA-NU,Cambridge Bay,
1686,CYCC,YCC,Cornwall Regional Airport,45.092637,-74.567724,,CA,CA-ON,Cornwall,
1687,CYCD,YCD,Nanaimo Airport,49.05497,-123.869863,,CA,CA-BC,Nanaimo,
1688,CYCE,YCE,Centralia / James T. Field Memorial Aerodrome,43.285599,-81.508301,,CA,CA-ON,Huron Park,CYCE
1689,CYCG,YCG,Castlegar/West Kootenay Regional Airport,49.296398,-117.632004,,CA,CA-BC,Castlegar,
1690,CYCH,YCH,Miramichi Airport,47.007801,-65.449203,,CA,CA-NB,Miramichi,
1691,CYCL,YCL,Charlo Airport,47.990799,-66.330299,,CA,CA-NB,Charlo,
1692,CYCN,YCN,Cochrane Airport,49.10559845,-81.01360321,,CA,CA-ON,Cochrane,
1695,CYCQ,YCQ,Chetwynd Airport,55.68719864,-121.6269989,,CA,CA-BC,Chetwynd,
1703,CYDA,YDA,Dawson City Airport,64.04309845,-139.128006,,CA,CA-YT,Dawson City,
1704,CYDB,YDB,Burwash Airport,61.371101,-139.041,,CA,CA-YT,Burwash Landing,
1706,CYDF,YDF,Deer Lake Airport,49.208159,-57.396147,,CA,CA-NL,Deer Lake,
1709,CYDM,XRR,Ross River Airport,61.97060013,-132.4230042,,CA,CA-YT,Ross River,YDM
1710,CYDN,YDN,Dauphin Barker Airport,51.1008,-100.052002,,CA,CA-MB,Dauphin,
1711,CYDO,YDO,Dolbeau-Saint-Felicien Airport,48.7785,-72.375,,CA,CA-QC,Dolbeau-Saint-Felicien,
1713,CYDQ,YDQ,Dawson Creek Airport,55.741245,-120.183263,,CA,CA-BC,Dawson Creek,
1717,CYEG,YEG,Edmonton International Airport,53.3097,-113.580002,,CA,CA-AB,Edmonton,CYEG
1719,CYEL,YEL,Elliot Lake Municipal Airport,46.35139847,-82.56140137,,CA,CA-ON,Elliot Lake,
1720,CYEM,YEM,Manitoulin East Municipal Airport,45.842435,-81.857595,,CA,CA-ON,Sheguiandah,
1721,CYEN,YEN,Estevan Airport,49.21030045,-102.9660034,,CA,CA-SK,Estevan,
1724,CYET,YET,Edson Airport,53.57889938,-116.4649963,,CA,CA-AB,Edson,
1726,CYEV,YEV,Inuvik Mike Zubko Airport,68.30419922,-133.4830017,,CA,CA-NT,Inuvik,
1727,CYEY,YEY,Amos/Magny Airport,48.563903,-78.249702,,CA,CA-QC,Amos,
1729,CYFB,YFB,Iqaluit Airport,63.756402,-68.555801,,CA,CA-NU,Iqaluit,
1730,CYFC,YFC,Fredericton International Airport,45.868697,-66.529891,,CA,CA-NB,Fredericton,
1732,CYFE,YFE,Forestville Airport,48.74610138,-69.09719849,,CA,CA-QC,Forestville,
1734,CYFJ,YTM,Mont-Tremblant International Airport,46.409401,-74.779999,,CA,CA-QC,La Macaza,
1736,CYFR,YFR,Fort Resolution Airport,61.18080139,-113.6900024,,CA,CA-NT,Fort Resolution,
1737,CYFS,YFS,Fort Simpson Airport,61.7602005,-121.2369995,,CA,CA-NT,Fort Simpson,
1743,CYGK,YGK,Kingston Norman Rogers Airport,44.2253,-76.596901,,CA,CA-ON,Kingston,
1744,CYGL,YGL,La Grande Rivière Airport,53.62530136,-77.70420074,,CA,CA-QC,La Grande Rivière,
1745,CYGM,YGM,Gimli Industrial Park Airport,50.62810135,-97.04329681,,CA,CA-MB,Gimli,
1747,CYGP,YGP,Michel-Pouliot Gaspé Airport,48.774915,-64.481893,,CA,CA-QC,Gaspé,
1748,CYGQ,YGQ,Geraldton Greenstone Regional Airport,49.77830124,-86.93939972,,CA,CA-ON,Geraldton,
1749,CYGR,YGR,Îles-de-la-Madeleine Airport,47.425242,-61.778612,,CA,CA-QC,Les Îles-de-la-Madeleine,
1751,CYGV,YGV,Havre-Saint-Pierre Airport,50.281898,-63.611401,,CA,CA-QC,Havre-Saint-Pierre,
1752,CYGW,YGW,Kuujjuarapik Airport,55.2818985,-77.76529694,,CA,CA-QC,Kuujjuarapik,
1757,CYHD,YHD,Dryden Regional Airport,49.831699,-92.744202,,CA,CA-ON,Dryden,
1759,CYHF,YHF,Hearst René Fontaine Municipal Airport,49.71419907,-83.68609619,,CA,CA-ON,Hearst,
1763,CYHM,YHM,John C. Munro Hamilton International Airport,43.17348,-79.931185,,CA,CA-ON,Hamilton,
1764,CYHN,YHN,Hornepayne Municipal Airport,49.19309998,-84.7589035,,CA,CA-ON,Hornepayne,
1767,CYHT,YHT,Haines Junction Airport,60.7892,-137.546005,,CA,CA-YT,Haines Junction,
1768,CYHU,YHU,Montréal / Saint-Hubert Metropolitan Airport,45.517502,-73.416901,,CA,CA-QC,Montréal,
1769,CYHY,YHY,Hay River / Merlyn Carter Airport,60.83969879,-115.7829971,,CA,CA-NT,Hay River,
1770,CYHZ,YHZ,Halifax / Stanfield International Airport,44.88079834,-63.50859833,,CA,CA-NS,Halifax,
1771,CYIB,YIB,Atikokan Municipal Airport,48.773899,-91.638603,,CA,CA-ON,Atikokan,
1772,CYID,YDG,Digby / Annapolis Regional Airport,44.54584504,-65.78542471,,CA,CA-NS,Digby,
1773,CYIF,YIF,St Augustin Airport,51.2117,-58.658298,,CA,CA-QC,St-Augustin,
1776,CYIV,YIV,Island Lake Airport,53.85720062,-94.6536026,,CA,CA-MB,Island Lake,
1778,CYJF,YJF,Fort Liard Airport,60.2358017,-123.4690018,,CA,CA-NT,Fort Liard,
1780,CYJN,YJN,St Jean Airport,45.29439926,-73.28109741,,CA,CA-QC,St Jean,
1783,CYJT,YJT,Stephenville Dymond International Airport,48.54339,-58.552892,,CA,CA-NL,Stephenville,
1784,CYKA,YKA,Kamloops John Moose Fulton Field Regional Airport,50.703038,-120.448641,,CA,CA-BC,Kamloops,
1787,CYKF,YKF,Region of Waterloo International Airport,43.4608,-80.378601,,CA,CA-ON,Breslau,
1789,CYKJ,YKJ,Key Lake Airport,57.2560997,-105.6179962,,CA,CA-SK,Key Lake,
1790,CYKL,YKL,Schefferville Airport,54.80530167,-66.80529785,,CA,CA-QC,Schefferville,
1340,CYKM,YKD,Kincardine Municipal Airport,44.201401,-81.606697,,CA,CA-ON,Kincardine,CYKM
1793,CYKX,YKX,Kirkland Lake Airport,48.21030045,-79.98139954,,CA,CA-ON,Kirkland Lake,
1794,CYKY,YKY,Kindersley Airport,51.51750183,-109.1809998,,CA,CA-SK,Kindersley,YKY
1799,CYLD,YLD,Chapleau Airport,47.81999969,-83.34670258,,CA,CA-ON,Chapleau,
1801,CYLJ,YLJ,Meadow Lake Airport,54.12530136,-108.5230026,,CA,CA-SK,Meadow Lake,
1803,CYLL,YLL,Lloydminster Airport,53.3092,-110.072998,,CA,CA-AB,Lloydminster,
1805,CYLR,YLR,Leaf Rapids Airport,56.51330185,-99.98529816,,CA,CA-MB,Leaf Rapids,
1293,CYLS,YLK,Barrie-Lake Simcoe Regional Airport,44.485056,-79.554663,,CA,CA-ON,Barrie,CYLS
1806,CYLT,YLT,Alert Airport,82.517263,-62.283037,,CA,CA-NU,Alert,
1808,CYLW,YLW,Kelowna International Airport,49.9561,-119.377998,,CA,CA-BC,Kelowna,
1809,CYMA,YMA,Mayo Airport,63.61640167,-135.8679962,,CA,CA-YT,Mayo,
1810,CYME,YME,Matane Airport,48.85689926,-67.45330048,,CA,CA-QC,Matane,
1811,CYMG,YMG,Manitouwadge Airport,49.08390045,-85.86060333,,CA,CA-ON,Manitouwadge,
1813,CYMJ,YMJ,Moose Jaw Air Vice Marshal C. M. McEwen Airport,50.33029938,-105.5589981,,CA,CA-SK,Moose Jaw,
1814,CYML,YML,Charlevoix Airport,47.59749985,-70.22389984,,CA,CA-QC,Charlevoix,
1815,CYMM,YMM,Fort McMurray International Airport,56.653301,-111.222,,CA,CA-AB,Fort McMurray,
1816,CYMO,YMO,Moosonee Airport,51.29109955,-80.60780334,,CA,CA-ON,Moosonee,
1817,CYMT,YMT,Chapais Airport,49.77190018,-74.52809906,,CA,CA-QC,Chibougamau,
1820,CYMX,YMX,Montreal Mirabel International Airport,45.679501,-74.038696,,CA,CA-QC,Montréal,
1822,CYNA,YNA,Natashquan Airport,50.190114,-61.78898,,CA,CA-QC,Natashquan,
1824,CYND,YND,Ottawa / Gatineau Airport,45.521702,-75.563599,,CA,CA-QC,Gatineau,CYND
1827,CYNJ,YLY,Langley Airport,49.1008,-122.630997,,CA,CA-BC,Langley,
1828,CYNL,YNL,Points North Landing Airport,58.27669907,-104.0820007,,CA,CA-SK,Points North Landing,
1829,CYNM,YNM,Matagami Airport,49.76169968,-77.80280304,,CA,CA-QC,Matagami,
1832,CYOA,YOA,Ekati Airport,64.69889832,-110.6149979,,CA,CA-NT,Ekati,
1834,CYOD,YOD,CFB Cold Lake,54.40499878,-110.2789993,,CA,CA-AB,Cold Lake,
1836,CYOJ,YOJ,High Level Airport,58.62139893,-117.1650009,,CA,CA-AB,High Level,
1837,CYOO,YOO,Oshawa Executive Airport,43.922798,-78.894997,,CA,CA-ON,Oshawa,CYOO
1838,CYOP,YOP,Rainbow Lake Airport,58.491402,-119.407997,,CA,CA-AB,Rainbow Lake,
1839,CYOS,YOS,Owen Sound / Billy Bishop Regional Airport,44.59030151,-80.83750153,,CA,CA-ON,Owen Sound,
1840,CYOW,YOW,Ottawa Macdonald-Cartier International Airport,45.322498,-75.669197,,CA,CA-ON,Ottawa,YOW
1842,CYPA,YPA,Prince Albert Glass Field,53.21419907,-105.6729965,,CA,CA-SK,Prince Albert,
1844,CYPD,YPS,Port Hawkesbury Airport,45.65670013,-61.36809921,,CA,CA-NS,Port Hawkesbury,
1845,CYPE,YPE,Peace River Airport,56.226898,-117.446999,,CA,CA-AB,Peace River,
1846,CYPG,YPG,Portage-la-Prairie / Southport Airport,49.903099,-98.273817,,CA,CA-MB,Portage la Prairie,
1849,CYPL,YPL,Pickle Lake Airport,51.44639969,-90.21420288,,CA,CA-ON,Pickle Lake,
1851,CYPN,YPN,Port-Menier Airport,49.836399,-64.288597,,CA,CA-QC,Port-Menier,
1854,CYPQ,YPQ,Peterborough Regional Airport,44.232251,-78.362053,,CA,CA-ON,Peterborough,
1855,CYPR,YPR,Prince Rupert Airport,54.28609848,-130.4450073,,CA,CA-BC,Prince Rupert,
1859,CYPW,YPW,Powell River Airport,49.83420181,-124.5,,CA,CA-BC,Powell River,
1860,CYPX,YPX,Puvirnituq Airport,60.050598,-77.286903,,CA,CA-QC,Puvirnituq,
1861,CYPY,YPY,Fort Chipewyan Airport,58.76720047,-111.1169968,,CA,CA-AB,Fort Chipewyan,
1862,CYPZ,YPZ,Burns Lake Airport,54.3764,-125.950996,,CA,CA-BC,Burns Lake,YPZ
1863,CYQA,YQA,Muskoka Airport,44.975376,-79.306546,,CA,CA-ON,Gravenhurst,
1864,CYQB,YQB,Quebec Jean Lesage International Airport,46.7911,-71.393303,,CA,CA-QC,Quebec,YQB
1865,CYQD,YQD,The Pas Airport,53.97140121,-101.0910034,,CA,CA-MB,The Pas,
1866,CYQF,YQF,Red Deer Regional Airport,52.182201,-113.893997,,CA,CA-AB,Springbrook,
1867,CYQG,YQG,Windsor International Airport,42.2756,-82.955597,,CA,CA-ON,Windsor,
1868,CYQH,YQH,Watson Lake Airport,60.116839,-128.821993,,CA,CA-YT,Watson Lake,
1869,CYQI,YQI,Yarmouth Airport,43.82690048,-66.08809662,,CA,CA-NS,Yarmouth,
1870,CYQK,YQK,Kenora Airport,49.78829956,-94.36309814,,CA,CA-ON,Kenora,
1871,CYQL,YQL,Lethbridge County Airport,49.63029861,-112.8000031,,CA,CA-AB,Lethbridge,
1872,CYQM,YQM,Greater Moncton Roméo LeBlanc International Airport,46.113189,-64.67719,,CA,CA-NB,Moncton,
1873,CYQN,YQN,Nakina Airport,50.18280029,-86.6964035,,CA,CA-ON,Nakina,
1874,CYQQ,YQQ,Comox Valley International Airport / CFB Comox,49.7108,-124.887001,,CA,CA-BC,Comox,
1875,CYQR,YQR,Regina International Airport,50.431938,-104.660906,,CA,CA-SK,Regina,
1876,CYQS,YQS,St Thomas Municipal Airport,42.77000046,-81.1108017,,CA,CA-ON,St Thomas,
1877,CYQT,YQT,Thunder Bay International Airport,48.371899,-89.323898,,CA,CA-ON,Thunder Bay,
1878,CYQU,YQU,Grande Prairie Airport,55.17969894,-118.8850021,,CA,CA-AB,Grande Prairie,
1879,CYQV,YQV,Yorkton Municipal Airport,51.264702,-102.461998,,CA,CA-SK,Yorkton,
1880,CYQW,YQW,North Battleford Airport,52.769409,-108.243742,,CA,CA-SK,North Battleford,
1881,CYQX,YQX,Gander International Airport,48.936258,-54.567719,,CA,CA-NL,Gander,
1882,CYQY,YQY,Sydney / J.A. Douglas McCurdy Airport,46.161072,-60.049759,,CA,CA-NS,Sydney,
1883,CYQZ,YQZ,Quesnel Airport,53.02610016,-122.5100021,,CA,CA-BC,Quesnel,
1885,CYRB,YRB,Resolute Bay Airport,74.71690369,-94.9693985,,CA,CA-NU,Resolute Bay,
1887,CYRI,YRI,Rivière-du-Loup Airport,47.76440048,-69.58470154,,CA,CA-QC,Rivière-du-Loup,
1888,CYRJ,YRJ,Roberval Airport,48.519665,-72.265735,,CA,CA-QC,Roberval,
1889,CYRL,YRL,Red Lake Airport,51.06689835,-93.79309845,,CA,CA-ON,Red Lake,
1891,CYRO,YRO,Ottawa / Rockcliffe Airport,45.460496,-75.644001,,CA,CA-ON,Ottawa,CYRO
1893,CYRQ,YRQ,Trois-Rivières Airport,46.35279846,-72.67939758,,CA,CA-QC,Trois-Rivières,
1895,CYRT,YRT,Rankin Inlet Airport,62.81140137,-92.11579895,,CA,CA-NU,Rankin Inlet,
1896,CYRV,YRV,Revelstoke Airport,50.962245,-118.184258,,CA,CA-BC,Revelstoke,
1897,CYSB,YSB,Sudbury Airport,46.625,-80.79889679,,CA,CA-ON,Sudbury,
1898,CYSC,YSC,Sherbrooke Airport,45.438599,-71.691399,,CA,CA-QC,Sherbrooke,
1901,CYSF,YSF,Stony Rapids Airport,59.25030136,-105.8410034,,CA,CA-SK,Stony Rapids,
1903,CYSH,YSH,Smiths Falls-Montague (Russ Beach) Airport,44.945801,-75.940598,,CA,CA-ON,Smiths Falls,
1904,CYSJ,YSJ,Saint John Airport,45.31610107,-65.89029694,,CA,CA-NB,Saint John,
1906,CYSL,YSL,Saint-Léonard Airport,47.157097,-67.836242,,CA,CA-NB,Saint-Léonard,
1907,CYSM,YSM,Fort Smith Airport,60.020302,-111.961998,,CA,CA-NT,Fort Smith,
1908,CYSN,YCM,Niagara District Airport,43.191598,-79.171686,,CA,CA-ON,Niagara-on-the-Lake,
1909,CYSP,YSP,Marathon Airport,48.75529861,-86.3443985,,CA,CA-ON,Marathon,
1913,CYSU,YSU,Summerside Airport,46.440601,-63.833599,,CA,CA-PE,Slemon Park,
1917,CYTA,YTA,Pembroke Airport,45.86439896,-77.25170135,,CA,CA-ON,Pembroke,
1919,CYTF,YTF,Alma Airport,48.5089,-71.641899,,CA,CA-QC,Alma,
1920,CYTH,YTH,Thompson Airport,55.80110168,-97.86419678,,CA,CA-MB,Thompson,
1924,CYTR,YTR,CFB Trenton,44.1189003,-77.52809906,,CA,CA-ON,Trenton,
1925,CYTS,YTS,Timmins/Victor M. Power,48.56969833,-81.37670136,,CA,CA-ON,Timmins,
1926,CYTZ,YTZ,Billy Bishop Toronto City Airport,43.627852,-79.39553,,CA,CA-ON,Toronto,
1928,CYUL,YUL,Montreal / Pierre Elliott Trudeau International Airport,45.467837,-73.742294,,CA,CA-QC,Montréal,YUL
1930,CYUX,YUX,Hall Beach Airport,68.7761,-81.2425,,CA,CA-NU,Sanirajak,
1931,CYUY,YUY,Rouyn Noranda Airport,48.20610046,-78.83560181,,CA,CA-QC,Rouyn-Noranda,
1932,CYVB,YVB,Bonaventure Airport,48.071098,-65.460297,,CA,CA-QC,Bonaventure,
1933,CYVC,YVC,La Ronge Airport,55.15140152,-105.262001,,CA,CA-SK,La Ronge,
1936,CYVK,YVE,Vernon Regional Airport,50.246163,-119.330963,,CA,CA-BC,Vernon,
1938,CYVO,YVO,Val-d'Or Airport,48.05329895,-77.78279877,,CA,CA-QC,Val-d'Or,
1939,CYVP,YVP,Kuujjuaq Airport,58.09609985,-68.42690277,,CA,CA-QC,Kuujjuaq,
1940,CYVQ,YVQ,Norman Wells Airport,65.28160095,-126.7979965,,CA,CA-NT,Norman Wells,
1941,CYVR,YVR,Vancouver International Airport,49.193901,-123.183998,,CA,CA-BC,Vancouver,
1943,CYVV,YVV,Wiarton Airport,44.7458,-81.107201,,CA,CA-ON,Wiarton,
1946,CYWG,YWG,Winnipeg / James Armstrong Richardson International Airport,49.90999985,-97.23989868,,CA,CA-MB,Winnipeg,YWG
1949,CYWK,YWK,Wabush Airport,52.9219017,-66.86440277,,CA,CA-NL,Wabush,
1950,CYWL,YWL,Williams Lake Airport,52.18310165,-122.0540009,,CA,CA-BC,Williams Lake,
1954,CYWY,YWY,Wrigley Airport,63.20940018,-123.4369965,,CA,CA-NT,Wrigley,
1955,CYXC,YXC,Cranbrook/Canadian Rockies International Airport,49.610802,-115.781998,,CA,CA-BC,Cranbrook,
1957,CYXE,YXE,Saskatoon John G. Diefenbaker International Airport,52.170723,-106.700793,,CA,CA-SK,Saskatoon,
1958,CYXH,YXH,Medicine Hat Regional Airport,50.018902,-110.721001,,CA,CA-AB,Medicine Hat,
1959,CYXJ,YXJ,Fort St John / North Peace Regional Airport,56.238098,-120.739998,,CA,CA-BC,Fort Saint John,
1960,CYXK,YXK,Rimouski Airport,48.477644,-68.496323,,CA,CA-QC,Rimouski,
1961,CYXL,YXL,Sioux Lookout Airport,50.11389923,-91.90529633,,CA,CA-ON,Sioux Lookout,
1964,CYXQ,YXQ,Beaver Creek Airport,62.41030121,-140.8670044,,CA,CA-YT,Beaver Creek,
1965,CYXR,YXR,Earlton (Timiskaming Regional) Airport,47.69740065,-79.84734535,,CA,CA-ON,Earlton,
1966,CYXS,YXS,Prince George (International) Airport,53.884311,-122.666554,,CA,CA-BC,Prince George,
1967,CYXT,YXT,Northwest Regional Airport Terrace-Kitimat,54.468498,-128.576009,,CA,CA-BC,Terrace,
1968,CYXU,YXU,London International Airport,43.032845,-81.149003,,CA,CA-ON,London,
1969,CYXX,YXX,Abbotsford International Airport,49.025299,-122.361,,CA,CA-BC,Abbotsford,
1970,CYXY,YXY,Whitehorse / Erik Nielsen International Airport,60.708533,-135.065705,,CA,CA-YT,Whitehorse,
1971,CYXZ,YXZ,Wawa Airport,47.96670151,-84.78669739,,CA,CA-ON,Wawa,
1972,CYYB,YYB,North Bay Jack Garland Airport,46.363602,-79.422798,,CA,CA-ON,North Bay,
1973,CYYC,YYC,Calgary International Airport,51.118822,-114.009933,,CA,CA-AB,Calgary,
1974,CYYD,YYD,Smithers Airport,54.8246994,-127.1829987,,CA,CA-BC,Smithers,
1975,CYYE,YYE,Fort Nelson Airport,58.83639908,-122.5970001,,CA,CA-BC,Fort Nelson,
1976,CYYF,YYF,Penticton Airport,49.46310043,-119.6019974,,CA,CA-BC,Penticton,
1977,CYYG,YYG,Charlottetown Airport,46.288911,-63.125174,,CA,CA-PE,Charlottetown,
1979,CYYJ,YYJ,Victoria International Airport,48.647201,-123.427792,,CA,CA-BC,Victoria,
1980,CYYL,YYL,Lynn Lake Airport,56.86389923,-101.0759964,,CA,CA-MB,Lynn Lake,
1982,CYYN,YYN,Swift Current Airport,50.29190063,-107.6910019,,CA,CA-SK,Swift Current,
1984,CYYQ,YYQ,Churchill Airport,58.73920059,-94.06500244,,CA,CA-MB,Churchill,
1985,CYYR,YYR,Goose Bay Airport,53.31919861,-60.42580032,,CA,CA-NL,Goose Bay,
1986,CYYT,YYT,St. John's International Airport,47.618599,-52.7519,,CA,CA-NL,St. John's,
1987,CYYU,YYU,Kapuskasing Airport,49.411587,-82.469645,,CA,CA-ON,Kapuskasing,
1988,CYYW,YYW,Armstrong Airport,50.29029846,-88.90969849,,CA,CA-ON,Armstrong,
1989,CYYY,YYY,Mont Joli Airport,48.60860062,-68.20809937,,CA,CA-QC,Mont-Joli,
1990,CYYZ,YYZ,Toronto Pearson International Airport,43.675935,-79.629421,,CA,CA-ON,Toronto,YYZ
1992,CYZE,YZE,Gore Bay Manitoulin Airport,45.8853,-82.567802,,CA,CA-ON,Gore Bay,
1993,CYZF,YZF,Yellowknife International Airport,62.462799,-114.440002,,CA,CA-NT,Yellowknife,
1995,CYZH,YZH,Slave Lake Airport,55.292945,-114.777276,,CA,CA-AB,Slave Lake,
1996,CYZP,YZP,Sandspit Airport,53.25429916,-131.8139954,,CA,CA-BC,Sandspit,
1997,CYZR,YZR,Chris Hadfield Airport,42.999401,-82.308899,,CA,CA-ON,Sarnia,
1998,CYZS,YZS,Coral Harbour Airport,64.19329834,-83.35939789,,CA,CA-NU,Coral Harbour,
1999,CYZT,YZT,Port Hardy Airport,50.68059921,-127.3669968,,CA,CA-BC,Port Hardy,
2000,CYZU,YZU,Whitecourt Airport,54.143902,-115.787003,,CA,CA-AB,Whitecourt,
2001,CYZV,YZV,Sept-Îles Airport,50.22330093,-66.26560211,,CA,CA-QC,Sept-Îles,
2002,CYZW,YZW,Teslin Airport,60.17279816,-132.7429962,,CA,CA-YT,Teslin,
2003,CYZX,YZX,CFB Greenwood,44.9844017,-64.91690063,,CA,CA-NS,Greenwood,
2006,CZAM,YSN,Shuswap Regional Airport,50.682802,-119.228996,,CA,CA-BC,Salmon Arm,
2008,CZBB,YDT,Boundary Bay Airport,49.074338,-123.006877,,CA,CA-BC,Delta,
2010,CZBF,ZBF,Bathurst Airport,47.6297,-65.738899,,CA,CA-NB,South Tetagouche,
2011,CZBM,ZBM,Bromont (Roland Désourdy) Airport,45.290798,-72.741402,,CA,CA-QC,Bromont,
2012,CZEE,KES,Kelsey Airport,56.03749847,-96.50969696,,CA,CA-MB,Kelsey,ZEE
2014,CZFA,ZFA,Faro Airport,62.20750046,-133.3760071,,CA,CA-YT,Faro,
2019,CZGF,ZGF,Grand Forks Airport,49.015598,-118.431,,CA,CA-BC,Grand Forks,
2023,CZJG,ZJG,Jenpeg Airport,54.51890182,-98.0460968,,CA,CA-MB,Jenpeg,
2024,CZJN,ZJN,Swan River Airport,52.120602,-101.236,,CA,CA-MB,Swan River,
2026,CZLQ,YTD,Thicket Portage Airport,55.31890106,-97.70780182,,CA,CA-MB,Thicket Portage,
2029,CZMN,PIW,Pikwitonei Airport,55.58890152,-97.16419983,,CA,CA-MB,Pikwitonei,
2030,CZMT,ZMT,Masset Airport,54.0275,-132.125,,CA,CA-BC,Masset,
2034,CZPC,WPC,Pincher Creek Airport,49.520429,-113.997002,,CA,CA-AB,Pincher Creek,
2037,CZSJ,ZSJ,Sandy Lake Airport,53.06420135,-93.3443985,,CA,CA-ON,Sandy Lake,
2039,CZST,ZST,Stewart Airport,55.93541045,-129.9824345,,CA,CA-BC,Stewart,CZST
2042,CZUC,ZUC,Ignace Municipal Airport,49.428204,-91.720418,,CA,CA-ON,Ignace,
2048,DAAD,BUJ,Bou Saada Airport,35.3325,4.20639,AF,DZ,DZ-28,Ouled Sidi Brahim,
2049,DAAE,BJA,Soummam–Abane Ramdane Airport,36.712547,5.069909,AF,DZ,DZ-06,Béjaïa,BJ1
2050,DAAG,ALG,Houari Boumediene Airport,36.693886,3.214531,AF,DZ,DZ-16,Algiers,
2051,DAAJ,DJG,Tiska Djanet Airport,24.285448,9.463652,AF,DZ,DZ-56,Djanet,
2054,DAAP,VVZ,Illizi Takhamalt Airport,26.723499,8.62265,AF,DZ,DZ-33,Illizi,
32193,DAAS,QSF,Ain Arnat Airport,36.178488,5.329909,AF,DZ,DZ-19,Sétif,
2056,DAAT,TMR,Aguenar – Hadj Bey Akhamok Airport,22.810992,5.450832,AF,DZ,DZ-11,Tamanrasset,
2057,DAAV,GJL,Jijel Ferhat Abbas Airport,36.794125,5.873652,AF,DZ,DZ-18,Tahir,
2058,DAAY,MZW,Mecheria Airport,33.53590012,-0.242353007,AF,DZ,DZ-45,Mecheria,
2060,DABB,AAE,Annaba Rabah Bitat Airport,36.826781,7.81334,AF,DZ,DZ-23,Annaba,
2061,DABC,CZL,Mohamed Boudiaf International Airport,36.276001,6.62039,AF,DZ,DZ-25,Constantine,
2062,DABS,TEE,Cheikh Larbi Tébessi Airport,35.43159866,8.12071991,AF,DZ,DZ-12,Tébessi,
2063,DABT,BLJ,Batna Mostefa Ben Boulaid Airport,35.752102,6.30859,AF,DZ,DZ-05,Batna,
2064,DAFH,HRM,Hassi R'Mel Airport,32.930401,3.31154,AF,DZ,DZ-03,Hassi R'Mel,
2065,DAOB,TID,Abdelhafid Boussouf Bou Chekif Airport,35.341099,1.46315,AF,DZ,DZ-14,Tiaret,
2067,DAOF,TIN,Tindouf Airport,27.7003994,-8.167099953,AF,DZ,DZ-37,Tindouf,
2068,DAOI,CFK,Chlef Aboubakr Belkaid International Airport,36.216614,1.341114,AF,DZ,DZ-02,Chlef,
2069,DAOL,TAF,Oran Tafraoui Airport,35.5424,-0.532278,AF,DZ,DZ-31,Tafraoui,
2070,DAON,TLM,Zenata – Messali El Hadj Airport,35.012732,-1.457117,AF,DZ,DZ-13,Zenata,
2071,DAOO,ORN,Oran Es-Sénia (Ahmed Ben Bella) International Airport,35.620648,-0.622486,AF,DZ,DZ-31,Es-Sénia,
2072,DAOR,CBH,Béchar Boudghene Ben Ali Lotfi Airport,31.64570045,-2.269860029,AF,DZ,DZ-08,Béchar,
2074,DAOV,MUW,Ghriss Airport,35.207699,0.147142,AF,DZ,DZ-29,Ghriss,
30777,DATM,BMW,Bordj Badji Mokhtar Airport,21.3778,0.92698,AF,DZ,DZ-52,Bordj Badji Mokhtar,
2075,DAUA,AZR,Touat-Cheikh Sidi Mohamed Belkebir Airport,27.837601,-0.186414,AF,DZ,DZ-01,Adrar,
2076,DAUB,BSK,Biskra - Mohamed Khider Airport,34.79318,5.738899,AF,DZ,DZ-07,Biskra,
2077,DAUE,ELG,El Golea Airport,30.580732,2.861595,AF,DZ,DZ-50,El Menia,
2078,DAUG,GHA,Noumérat - Moufdi Zakaria Airport,32.384102,3.79411,AF,DZ,DZ-47,El Atteuf,
2079,DAUH,HME,Hassi Messaoud-Oued Irara Krim Belkacem Airport,31.673,6.14044,AF,DZ,DZ-30,Hassi Messaoud,
2080,DAUI,INZ,In Salah Airport,27.250999,2.51202,AF,DZ,DZ-57,In Salah,
2081,DAUK,TGR,Touggourt Sidi Madhi Airport,33.067799,6.08867,AF,DZ,DZ-55,Touggourt,
2082,DAUL,LOO,Laghouat - Molay Ahmed Medeghri Airport,33.7644,2.92834,AF,DZ,DZ-03,Laghouat,
2083,DAUO,ELU,Guemar Airport - مطار قمار بالوادي,33.511398,6.77679,AF,DZ,DZ-39,Guemar,
2084,DAUT,TMX,Timimoun Airport,29.237101,0.276033,AF,DZ,DZ-54,Timimoun,
2085,DAUU,OGX,Ain Beida Airport,31.9172,5.41278,AF,DZ,DZ-30,Ouargla,
2086,DAUZ,IAM,Zarzaitine - In Aménas Airport,28.0515,9.64291,AF,DZ,DZ-33,In Aménas,
2087,DBBB,COO,Cotonou Cadjehoun International Airport,6.35723,2.38435,AF,BJ,BJ-AQ,Cotonou,
2088,DFFD,OUA,Ouagadougou Thomas Sankara International Airport,12.3532,-1.51242,AF,BF,BF-KAD,Ouagadougou,
2089,DFOO,BOY,Bobo Dioulasso Airport,11.1601,-4.33097,AF,BF,BF-HOU,Bobo Dioulasso,
2090,DGAA,ACC,Kotoka International Airport,5.6051898,-0.166786,AF,GH,GH-AA,Accra,
2091,DGLE,TML,Yakubu Tali International Airport,9.553909,-0.86606,AF,GH,GH-NP,Tamale,
2093,DGSI,KMS,Prempeh I International Airport,6.71456,-1.59082,AF,GH,GH-AH,Kumasi,
2094,DGSN,NYI,Sunyani Airport,7.36183,-2.32876,AF,GH,GH-BO,Sunyani,
2095,DGTK,TKD,Takoradi Airport,4.89605999,-1.774760008,AF,GH,GH-WP,Sekondi-Takoradi,
2096,DIAP,ABJ,Félix-Houphouët-Boigny International Airport,5.26139,-3.92629,AF,CI,CI-AB,Abidjan,
2097,DIBK,BYK,Bouaké Airport,7.7388,-5.07367,AF,CI,CI-VB,Bouaké,
2098,DIDL,DJO,Daloa Airport,6.79281,-6.47319,AF,CI,CI-SM,,
2099,DIKO,HGO,Korhogo Airport,9.38718,-5.55666,AF,CI,CI-SV,Korhogo,
2100,DIMN,MJC,Man Airport,7.27207,-7.58736,AF,CI,CI-MG,,
2101,DISP,SPY,San Pedro Airport,4.74672,-6.66082,AF,CI,CI-BS,,
2102,DIYO,ASK,Yamoussoukro International Airport,6.90317,-5.36558,AF,CI,CI-YM,Yamoussoukro,
4971,DN57,DKA,Umaru Musa Yar'adua Airport,13.0078,7.66045,AF,NG,NG-KT,Katsina,
2104,DNAA,ABV,Nnamdi Azikiwe International Airport,9.00679,7.26317,AF,NG,NG-FC,Abuja,
309668,DNAI,QUO,Akwa Ibom International Airport,4.8725,8.093,AF,NG,NG-AK,Uyo,
2105,DNAK,AKR,Akure Airport,7.246739864,5.301010132,AF,NG,NG-ON,Akure,
300781,DNAS,ABB,Asaba International Airport,6.204167,6.665278,AF,NG,NG-DE,Asaba,
323056,DNBC,BCU,Sir Abubakar Tafawa Balewa Bauchi State International Airport,10.482833,9.744,AF,NG,NG-BA,Bauchi,
2106,DNBE,BNI,Benin Airport,6.316979885,5.599500179,AF,NG,NG-ED,Benin,
2107,DNCA,CBQ,Margaret Ekpo International Airport,4.976019859,8.347200394,AF,NG,NG-CR,Calabar,
2108,DNEN,ENU,Akanu Ibiam International Airport,6.473718,7.560463,AF,NG,NG-EN,Enegu,
44578,DNGO,GMO,Gombe Lawanti International Airport,10.298889,10.9,AF,NG,NG-GO,Gombe,
2110,DNIB,IBA,Ibadan Airport,7.362460136,3.978329897,AF,NG,NG-OY,Ibadan,
2111,DNIL,ILR,General Tunde Idiagbon International Airport,8.44021,4.49392,AF,NG,NG-KW,Ilorin/Ogbomosho,
2112,DNIM,QOW,Sam Mbakwe International Cargo Airport,5.42706,7.20603,AF,NG,NG-IM,Owerri,
2113,DNJO,JOS,Yakubu Gowon Airport,9.639829636,8.869050026,AF,NG,NG-PL,Jos,
2114,DNKA,KAD,Kaduna International Airport,10.696,7.32011,AF,NG,NG-KD,Kaduna,
2115,DNKN,KAN,Mallam Aminu Kano International Airport,12.045613,8.523566,AF,NG,NG-KN,Kano,
2116,DNMA,MIU,Maiduguri International Airport,11.854163,13.080702,AF,NG,NG-BO,Maiduguri,
2117,DNMK,MDI,Makurdi Airport,7.70388,8.61394,AF,NG,NG-BE,Makurdi,
2118,DNMM,LOS,Murtala Muhammed International Airport,6.57737,3.32116,AF,NG,NG-LA,Lagos,
2119,DNMN,MXJ,Minna Airport,9.652170181,6.462259769,AF,NG,NG-NI,Minna,
2120,DNPO,PHC,Port Harcourt International Airport,5.01549,6.94959,AF,NG,NG-RI,Port Harcourt,
2121,DNSO,SKO,Sadiq Abubakar III International Airport,12.915729,5.207547,AF,NG,NG-SO,Sokoto,
32192,DNSU,QRW,Warri Airport,5.59821,5.8187,AF,NG,NG-DE,Okpe,
2122,DNYO,YOL,Yola Airport,9.25755024,12.43039989,AF,NG,NG-AD,Yola,
2123,DNZA,ZAR,Zaria Airport,11.1302,7.68581,AF,NG,NG-KD,Zaria,
2124,DRRM,MFQ,Maradi Airport,13.5025,7.12675,AF,NE,NE-4,Maradi,
2125,DRRN,NIM,Diori Hamani International Airport,13.4815,2.18361,AF,NE,NE-8,Niamey,
2126,DRRT,THZ,Tahoua Airport,14.8757,5.26536,AF,NE,NE-5,Tahoua,
2127,DRZA,AJY,Mano Dayak International Airport,16.966,8.00011,AF,NE,NE-1,Agadez,
2130,DRZR,ZND,Zinder Airport,13.77900028,8.98375988,AF,NE,NE-7,Zinder,
2131,DTKA,TBJ,Tabarka-Aïn Draham International Airport,36.98,8.87694,AF,TN,TN-32,Tabarka,
2132,DTMB,MIR,Monastir Habib Bourguiba International Airport,35.7580986,10.75469971,AF,TN,TN-52,Monastir,
44483,DTNH,NBE,Enfidha - Hammamet International Airport,36.075833,10.438611,AF,TN,TN-51,Enfidha,DTNH
2133,DTTA,TUN,Tunis Carthage International Airport,36.851002,10.2272,AF,TN,TN-11,Tunis,
2136,DTTF,GAF,Gafsa Ksar International Airport,34.42200089,8.822500229,AF,TN,TN-71,Gafsa,
2137,DTTG,GAE,Gabès Matmata International Airport,33.733691,9.91941,AF,TN,TN-81,Gabès,
2139,DTTJ,DJE,Djerba Zarzis International Airport,33.873719,10.7773,AF,TN,TN-82,Mellita,
2140,DTTR,EBM,El Borma Airport,31.7043,9.25462,AF,TN,TN-83,El Borma,
2141,DTTX,SFA,Sfax Thyna International Airport,34.717999,10.691,AF,TN,TN-61,Sfax,
2142,DTTZ,TOE,Tozeur Nefta International Airport,33.93970108,8.110560417,AF,TN,TN-72,Tozeur,
2143,DXNG,LRL,Niamtougou International Airport,9.766675,1.090944,AF,TG,TG-K,Niamtougou,
2144,DXXX,LFW,Lomé–Tokoin International Airport,6.16561,1.25451,AF,TG,TG-M,Lomé,
2152,EBAW,ANR,Antwerp International Airport (Deurne),51.190667,4.463153,EU,BE,BE-VAN,Antwerp,
2155,EBBR,BRU,Brussels Airport,50.901402,4.48444,EU,BE,BE-VBR,Zaventem,
2157,EBCI,CRL,Brussels South Charleroi Airport,50.461963,4.459562,EU,BE,BE-WHT,Charleroi,
2161,EBKT,KJK,Flanders International Airport Kortrijk-Wevelgem,50.818878,3.209551,EU,BE,BE-VWV,Wevelgem,
2162,EBLG,LGG,Liège Airport,50.638574,5.443897,EU,BE,BE-WLG,Grâce-Hollogne,
2163,EBOS,OST,Ostend-Bruges International Airport,51.1998,2.874673,EU,BE,BE-VWV,Oostende,
2184,EDAC,AOC,Leipzig–Altenburg Airport,50.981945,12.506389,EU,DE,DE-TH,Nobitz,
2187,EDAH,HDF,Heringsdorf Airport,53.8787,14.1523,EU,DE,DE-MV,Zirchow,
2743,EDBN,FNB,Neubrandenburg Trollenhagen Airport,53.6022,13.306,EU,DE,DE-MV,Trollenhagen,
301881,EDDB,BER,Berlin Brandenburg Airport,52.361738,13.502341,EU,DE,DE-BR,Berlin,
2210,EDDC,DRS,Dresden Airport,51.134123,13.767831,EU,DE,DE-SN,Dresden,
2211,EDDE,ERF,Erfurt-Weimar Airport,50.978281,10.960713,EU,DE,DE-TH,Erfurt,
2212,EDDF,FRA,Frankfurt Main Airport,50.026706,8.55835,EU,DE,DE-HE,Frankfurt am Main,
2213,EDDG,FMO,Münster Osnabrück Airport,52.133816,7.688482,EU,DE,DE-NW,Greven,
2214,EDDH,HAM,Hamburg Helmut Schmidt Airport,53.630402,9.98823,EU,DE,DE-HH,Hamburg,
2216,EDDK,CGN,Cologne Bonn Airport,50.865898,7.14274,EU,DE,DE-NW,Köln (Cologne),
2217,EDDL,DUS,Düsseldorf Airport,51.289501,6.76678,EU,DE,DE-NW,Düsseldorf,
2218,EDDM,MUC,Munich Airport,48.353802,11.7861,EU,DE,DE-BY,Munich,
2219,EDDN,NUE,Nuremberg Airport,49.498699,11.078056,EU,DE,DE-BY,Nuremberg,
2220,EDDP,LEJ,Leipzig/Halle Airport,51.420657,12.232705,EU,DE,DE-SN,Schkeuditz,
2221,EDDR,SCN,Saarbrücken Airport,49.214545,7.109735,EU,DE,DE-SL,Saarbrücken,
2222,EDDS,STR,Stuttgart Airport,48.689899,9.22196,EU,DE,DE-BW,Stuttgart,
2224,EDDV,HAJ,Hannover Airport,52.461102,9.68508,EU,DE,DE-NI,Hannover,
2225,EDDW,BRE,Bremen Airport,53.046786,8.78932,EU,DE,DE-HB,Bremen,
2227,EDFH,HHN,Frankfurt-Hahn Airport,49.946353,7.261734,EU,DE,DE-RP,Frankfurt am Main (Lautzenhausen),
2228,EDFM,MHG,Mannheim-City Airport,49.473057,8.514167,EU,DE,DE-BW,Mannheim,
2232,EDGE,EIB,Eisenach-Kindel Airport,50.991604,10.47973,EU,DE,DE-TH,Hörselberg-Hainich,
2233,EDGS,SGE,Siegerland Airport,50.707699,8.08297,EU,DE,DE-NW,Burbach,
2234,EDHI,XFW,Hamburg-Finkenwerder Airport,53.53527832,9.83555603,EU,DE,DE-HH,Hamburg,
2235,EDHK,KEL,Kiel-Holtenau Airport,54.37957,10.145266,EU,DE,DE-SH,Kiel,
2236,EDHL,LBC,Lübeck Blankensee Airport,53.805401,10.7192,EU,DE,DE-SH,Lübeck,
2237,EDJA,FMM,Memmingen Allgau Airport,47.988092,10.238248,EU,DE,DE-BY,Memmingen,
2242,EDLI,BFE,Bielefeld Airport,51.964722,8.544444,EU,DE,DE-NW,Bielefeld,
2243,EDLN,MGL,Mönchengladbach Airport,51.230278,6.504444,EU,DE,DE-NW,Mönchengladbach,
2244,EDLP,PAD,Paderborn Lippstadt Airport,51.612527,8.617459,EU,DE,DE-NW,Büren,
2246,EDLV,NRN,Weeze (Niederrhein) Airport,51.601362,6.141228,EU,DE,DE-NW,Weeze,
2247,EDLW,DTM,Dortmund Airport,51.518299,7.61224,EU,DE,DE-NW,Dortmund,
2248,EDMA,AGB,Augsburg Airport,48.425278,10.931667,EU,DE,DE-BY,Augsburg,
2252,EDMO,OBF,Oberpfaffenhofen Airport,48.081402,11.2831,EU,DE,DE-BY,Weßling,
2256,EDNY,FDH,Bodensee Airport Friedrichshafen,47.671299,9.51149,EU,DE,DE-BW,Friedrichshafen,
2261,EDQD,BYU,Bayreuth Airport,49.985001,11.64,EU,DE,DE-BY,Bindlach,
2263,EDQM,HOQ,Hof-Plauen Airport,50.288544,11.852876,EU,DE,DE-BY,Hof,
2270,EDSB,FKB,Karlsruhe Baden-Baden Airport,48.7794,8.0805,EU,DE,DE-BW,Rheinmünster,
2276,EDTL,LHA,Lahr Airport,48.369301,7.82772,EU,DE,DE-BW,Lahr/Schwarzwald,
2284,EDVE,BWE,Braunschweig-Wolfsburg Airport,52.319199,10.5561,EU,DE,DE-NI,Braunschweig,
2285,EDVK,KSF,Kassel Airport,51.418395,9.391638,EU,DE,DE-HE,Calden,
2296,EDXW,GWT,Westerland Sylt Airport,54.9132,8.34047,EU,DE,DE-SH,Sylt,
2298,EEKA,KDL,Kärdla Airport,58.99079895,22.83069992,EU,EE,EE-39,Kärdla,
2299,EEKE,URE,Kuressaare Airport,58.22990036,22.5095005,EU,EE,EE-74,Kuressaare,
2300,EEPU,EPU,Pärnu Airport,58.41899872,24.4727993,EU,EE,EE-67,Pärnu,
2357,EES,EES,Berenice International Airport / Banas Cape Air Base,23.980437,35.460277,AF,EG,EG-BA,Berenice Troglodytica,
2301,EETN,TLL,Lennart Meri Tallinn Airport,59.413246,24.83264,EU,EE,EE-37,Tallinn,
2302,EETU,TAY,Tartu Airport,58.307438,26.686473,EU,EE,EE-7B,Tartu,
2303,EFET,ENF,Enontekio Airport,68.36260223,23.42429924,EU,FI,FI-10,Enontekio,
2305,EFHA,KEV,Halli Airport,61.856039,24.786686,EU,FI,FI-08,Jämsä,
2307,EFHK,HEL,Helsinki Vantaa Airport,60.318363,24.963341,EU,FI,FI-18,Helsinki (Vantaa),
2313,EFIT,KTQ,Kitee Airport,62.1661,30.073601,EU,FI,FI-13,Kitee,
2314,EFIV,IVL,Ivalo Airport,68.6073,27.4053,EU,FI,FI-10,Ivalo,
2315,EFJO,JOE,Joensuu Airport,62.658815,29.619398,EU,FI,FI-13,Joensuu,
2316,EFJY,JYV,Jyväskylä Airport,62.399502,25.678301,EU,FI,FI-08,Jyväskylän Maalaiskunta,
2317,EFKA,KAU,Kauhava Airfield,63.127102,23.051399,EU,FI,FI-03,Kauhava,
2318,EFKE,KEM,Kemi-Tornio Airport,65.77870178,24.58209991,EU,FI,FI-10,Kemi / Tornio,
2319,EFKI,KAJ,Kajaani Airport,64.2855,27.6924,EU,FI,FI-05,Kajaani,
2320,EFKJ,KHJ,Kauhajoki Airfield,62.463212,22.390817,EU,FI,FI-03,Kauhajoki,
2321,EFKK,KOK,Kokkola-Pietarsaari Airport,63.721199,23.143101,EU,FI,FI-07,Kokkola / Kruunupyy,
2324,EFKS,KAO,Kuusamo Airport,65.987602,29.239401,EU,FI,FI-14,Kuusamo,
2325,EFKT,KTT,Kittilä International Airport,67.700996,24.8468,EU,FI,FI-10,Kittilä,
2326,EFKU,KUO,Kuopio Airport,63.007099,27.7978,EU,FI,FI-15,Kuopio / Siilinjärvi,
2329,EFLP,LPP,Lappeenranta Airport,61.044601,28.144743,EU,FI,FI-02,Lappeenranta,
2330,EFMA,MHQ,Mariehamn Airport,60.1222,19.898199,EU,FI,FI-01,Mariehamn,
2332,EFMI,MIK,Mikkeli Airport,61.6866,27.201799,EU,FI,FI-04,Mikkeli,
2334,EFOU,OUL,Oulu Airport,64.930099,25.354601,EU,FI,FI-14,Oulu / Oulunsalo,
2336,EFPO,POR,Pori Airport,61.4617,21.799999,EU,FI,FI-17,Pori,
2341,EFRO,RVN,Rovaniemi Airport,66.563327,25.829751,EU,FI,FI-10,Rovaniemi,
2343,EFSA,SVL,Savonlinna Airport,61.9431,28.945101,EU,FI,FI-04,Savonlinna,
2345,EFSI,SJY,Seinäjoki Airport,62.692101,22.8323,EU,FI,FI-03,Seinäjoki / Ilmajoki,
2346,EFSO,SOT,Sodankyla Airport,67.39499664,26.61910057,EU,FI,FI-10,Sodankyla,
2347,EFTP,TMP,Tampere-Pirkkala Airport,61.414101,23.604401,EU,FI,FI-11,Tampere / Pirkkala,
2349,EFTU,TKU,Turku Airport,60.514099,22.2628,EU,FI,FI-19,Turku,
2350,EFUT,UTI,Utti Air Base,60.8964,26.9384,EU,FI,FI-09,Utti / Valkeala,
2351,EFVA,VAA,Vaasa Airport,63.05023,21.762543,EU,FI,FI-12,Vaasa,
2352,EFVR,VRK,Varkaus Airport,62.171101,27.868601,EU,FI,FI-04,Varkaus / Joroinen,
2353,EFYL,YLI,Ylivieska Airfield,64.054722,24.725278,EU,FI,FI-14,Ylivieska,
2385,EGAA,BFS,Belfast International Airport,54.65750122,-6.215829849,EU,GB,GB-NIR,Belfast,
2386,EGAB,ENK,Enniskillen/St Angelo Airport,54.398274,-7.651179,EU,GB,GB-NIR,"Enniskillen, Fermanagh and Omagh",
2387,EGAC,BHD,George Best Belfast City Airport,54.618099,-5.8725,EU,GB,GB-NIR,Belfast,
2388,EGAE,LDY,City of Derry Airport,55.042801,-7.16111,EU,GB,GB-NIR,"Derry, Derry and Strabane",
2389,EGBB,BHX,Birmingham Airport,52.453899,-1.74803,EU,GB,GB-ENG,"Birmingham, West Midlands",
2390,EGBE,CVT,Coventry Airport,52.369701,-1.47972,EU,GB,GB-ENG,"Coventry, West Midlands",
2392,EGBJ,GLO,Gloucestershire Airport,51.894199,-2.16722,EU,GB,GB-ENG,"Staverton, Gloucestershire",
2393,EGBN,NQT,Nottingham City Airport,52.919998,-1.07917,EU,GB,GB-ENG,"Nottingham, Nottinghamshire",
2398,EGCC,MAN,Manchester Airport,53.349375,-2.279521,EU,GB,GB-ENG,"Manchester, Greater Manchester",
2410,EGDY,YEO,RNAS Yeovilton,51.009399,-2.63882,EU,GB,GB-ENG,"Yeovil, Somerset",
2411,EGEC,CAL,Campbeltown Airport,55.437199,-5.68639,EU,GB,GB-SCT,Campbeltown,
29126,EGED,EOI,Eday Airport,59.19060135,-2.772219896,EU,GB,GB-SCT,Eday,
2414,EGFE,HAW,Haverfordwest Airport,51.83309937,-4.961110115,EU,GB,GB-WLS,Haverfordwest,
2415,EGFF,CWL,Cardiff International Airport,51.396702,-3.34333,EU,GB,GB-WLS,Cardiff,
2416,EGFH,SWS,Swansea Airport,51.601366,-4.071006,EU,GB,GB-WLS,Swansea,
2417,EGGD,BRS,Bristol Airport,51.382326,-2.716453,EU,GB,GB-ENG,Bristol,
2418,EGGP,LPL,Liverpool John Lennon Airport,53.334863,-2.849637,EU,GB,GB-ENG,Liverpool,
2419,EGGW,LTN,London Luton Airport,51.874699,-0.368333,EU,GB,GB-ENG,"Luton, Luton",
2421,EGHH,BOH,Bournemouth Airport,50.780483,-1.839576,EU,GB,GB-ENG,Bournemouth,
2422,EGHI,SOU,Southampton Airport,50.950298,-1.3568,EU,GB,GB-ENG,Southampton,
2404,EGHQ,NQY,Cornwall Airport Newquay,50.440601,-4.99541,EU,GB,GB-ENG,Newquay,
2424,EGJA,ACI,Alderney Airport,49.706104,-2.21472,EU,GG,GG-A,Saint Anne,
2425,EGJB,GCI,Guernsey Airport,49.435001,-2.60197,EU,GG,GG-G,Saint Peter Port,
2426,EGJJ,JER,Jersey Airport,49.207901,-2.19551,EU,JE,JE-U-A,St. Peter,
2427,EGKA,ESH,Brighton City Airport,50.835602,-0.297222,EU,GB,GB-ENG,"Brighton, East Sussex",
2428,EGKB,BQH,London Biggin Hill Airport,51.3307991,0.032499999,EU,GB,GB-ENG,London,
2429,EGKK,LGW,London Gatwick Airport,51.148744,-0.185739,EU,GB,GB-ENG,London,
2430,EGLC,LCY,London City Airport,51.505299,0.055278,EU,GB,GB-ENG,London,
2431,EGLF,FAB,Farnborough Airport,51.275799,-0.776333,EU,GB,GB-ENG,"Farnborough, Hampshire",
2433,EGLK,BBS,Blackbushe Airport,51.323898,-0.8475,EU,GB,GB-ENG,"Camberley, Surrey",
2434,EGLL,LHR,London Heathrow Airport,51.470748,-0.459909,EU,GB,GB-ENG,London,
2435,EGMC,SEN,London Southend Airport,51.570562,0.693627,EU,GB,GB-ENG,"Southend-on-Sea, Essex",
2436,EGMD,LYX,Lydd London Ashford Airport,50.956246,0.939074,EU,GB,GB-ENG,"Romney Marsh, Kent",
2439,EGNC,CAX,Carlisle Lake District Airport,54.9375,-2.80917,EU,GB,GB-ENG,"Carlisle, Cumbria",
2441,EGNH,BLK,Blackpool Airport,53.771702,-3.02861,EU,GB,GB-ENG,Blackpool,
2442,EGNJ,HUY,Humberside Airport,53.576152,-0.34954,EU,GB,GB-ENG,"Grimsby, Lincolnshire",
2443,EGNL,BWF,Barrow Walney Island Airport,54.1286111,-3.2675,EU,GB,GB-ENG,Barrow-in-Furness,
2444,EGNM,LBA,Leeds Bradford Airport,53.865898,-1.66057,EU,GB,GB-ENG,"Leeds, West Yorkshire",
2445,EGNO,WRT,Warton Aerodrome,53.745098,-2.88306,EU,GB,GB-ENG,Warton,
2446,EGNR,CEG,Hawarden Airport,53.178101,-2.97778,EU,GB,GB-WLS,Broughton,
2447,EGNS,IOM,Isle of Man Airport,54.083081,-4.623871,EU,IM,IM-U-A,Castletown,
2448,EGNT,NCL,Newcastle International Airport,55.037958,-1.689577,EU,GB,GB-ENG,"Newcastle upon Tyne, Tyne and Wear",
2449,EGNV,MME,Teesside International Airport,54.509201,-1.42941,EU,GB,GB-ENG,"Darlington, Durham",
2450,EGNX,EMA,East Midlands Airport,52.8311,-1.32806,EU,GB,GB-ENG,"Nottingham, Leicestershire",
2454,EGOV,VLY,Anglesey Airport,53.2481,-4.53534,EU,GB,GB-WLS,Angelsey,
2456,EGPA,KOI,Kirkwall Airport,58.957903,-2.905077,EU,GB,GB-SCT,"Kirkwall, Orkney Islands",
2457,EGPB,LSI,Sumburgh Airport,59.878899,-1.29556,EU,GB,GB-SCT,"Lerwick, Shetland",
2458,EGPC,WIC,Wick John O'Groats Airport,58.4589,-3.09306,EU,GB,GB-SCT,Wick,
2459,EGPD,ABZ,Aberdeen International Airport,57.2019,-2.19778,EU,GB,GB-SCT,Aberdeen,
2460,EGPE,INV,Inverness Airport,57.5425,-4.0475,EU,GB,GB-SCT,Inverness,
2461,EGPF,GLA,Glasgow Airport,55.871899,-4.43306,EU,GB,GB-SCT,Glasgow,
2462,EGPH,EDI,Edinburgh Airport,55.950145,-3.372288,EU,GB,GB-SCT,Edinburgh,
2463,EGPI,ILY,Islay Airport,55.682708,-6.257525,EU,GB,GB-SCT,"Isle of Islay, Argyll and Bute",
2464,EGPK,PIK,Glasgow Prestwick Airport,55.501499,-4.577182,EU,GB,GB-SCT,"Prestwick, South Ayrshire",
2465,EGPL,BEB,Benbecula Airport,57.481098,-7.36278,EU,GB,GB-SCT,Balivanich,
2467,EGPN,DND,Dundee Airport,56.452499,-3.02583,EU,GB,GB-SCT,Dundee,
2468,EGPO,SYY,Stornoway Airport,58.215599,-6.33111,EU,GB,GB-SCT,"Stornoway, Western Isles",
29173,EGPR,BRR,Barra Airport,57.0228,-7.44306,EU,GB,GB-SCT,Eoligarry,
2469,EGPU,TRE,Tiree Airport,56.499199,-6.86917,EU,GB,GB-SCT,"Balemartine, Argyll and Bute",
2471,EGQL,ADX,Leuchars Station Airfield,56.37398,-2.868862,EU,GB,GB-SCT,"Leuchars, Fife",
2472,EGQS,LMO,RAF Lossiemouth,57.7052,-3.33917,EU,GB,GB-SCT,"Lossiemouth, Moray",
2473,EGSC,CBG,Cambridge City Airport,52.205002,0.175,EU,GB,GB-ENG,"Cambridge, Cambridgeshire",
2475,EGSH,NWI,Norwich Airport,52.6758,1.28278,EU,GB,GB-ENG,"Norwich, Norfolk",
2476,EGSS,STN,London Stansted Airport,51.884998,0.235,EU,GB,GB-ENG,"London, Essex",
2481,EGTE,EXT,Exeter International Airport,50.734261,-3.413984,EU,GB,GB-ENG,"Exeter, Devon",
2483,EGTK,OXF,London Oxford Airport,51.836899,-1.32,EU,GB,GB-ENG,"Kidlington, Oxfordshire",
2486,EGUB,BEX,RAF Benson,51.614366,-1.095991,EU,GB,GB-ENG,"Wallingford, Oxfordshire",
2487,EGUL,LKZ,RAF Lakenheath,52.40954,0.561161,EU,GB,GB-ENG,"Brandon, Suffolk",
2488,EGUN,MHZ,RAF Mildenhall,52.3619,0.486406,EU,GB,GB-ENG,"Bury Saint Edmunds, Suffolk",
2492,EGVA,FFD,RAF Fairford,51.683568,-1.789172,EU,GB,GB-ENG,"Fairford, Gloucestershire",
2493,EGVN,BZZ,RAF Brize Norton,51.75,-1.58362,EU,GB,GB-ENG,"Carterton, Oxfordshire",
2494,EGVO,ODH,RAF Odiham,51.2341,-0.942825,EU,GB,GB-ENG,"Hook, Hampshire",
2496,EGWU,NHT,RAF Northolt,51.553001,-0.418167,EU,GB,GB-ENG,"Northolt, Greater London",
2497,EGXC,QCY,RAF Coningsby,53.092999,-0.166014,EU,GB,GB-ENG,"Lincoln, Lincolnshire",
2501,EGXH,BEQ,RAF Honington,52.342602,0.772939,EU,GB,GB-ENG,"Bury Saint Edmunds, Suffolk",
2506,EGXW,WTN,RAF Waddington,53.166199,-0.523811,EU,GB,GB-ENG,"Lincoln, Lincolnshire",
2511,EGYM,KNF,RAF Marham,52.648395,0.550692,EU,GB,GB-ENG,"King's Lynn, Norfolk",
2512,EGYP,MPN,Mount Pleasant Airport / RAF Mount Pleasant,-51.822642,-58.445777,SA,FK,FK-U-A,Mount Pleasant,
2513,EHAM,AMS,Amsterdam Airport Schiphol,52.308601,4.76389,EU,NL,NL-NH,Amsterdam,
2515,EHBK,MST,Maastricht Aachen Airport,50.911087,5.769401,EU,NL,NL-LI,Maastricht,
2518,EHEH,EIN,Eindhoven Airport,51.45009995,5.374529839,EU,NL,NL-NB,Eindhoven,
2519,EHGG,GRQ,Groningen Airport Eelde,53.119107,6.577652,EU,NL,NL-DR,Groningen,
2520,EHGR,GLZ,Gilze Rijen Air Base,51.567402,4.93183,EU,NL,NL-NB,Rijen,
2521,EHKD,DHR,De Kooy Airfield / Den Helder Naval Air Station,52.923401,4.78062,EU,NL,NL-NH,Den Helder,
2522,EHLE,LEY,Lelystad Airport,52.453188,5.514622,EU,NL,NL-FL,Lelystad,
2523,EHLW,LWR,Leeuwarden Air Base,53.22859955,5.760560036,EU,NL,NL-FR,Leeuwarden,
2524,EHRD,RTM,Rotterdam The Hague Airport,51.956902,4.43722,EU,NL,NL-ZH,Rotterdam,
2526,EHTW,ENS,Twente Airport,52.275833,6.889167,EU,NL,NL-OV,Enschede,
2528,EHVK,UDE,Volkel Air Base,51.657222,5.707778,EU,NL,NL-NB,Uden,
2529,EHWO,WOE,Woensdrecht Air Base,51.4491,4.34203,EU,NL,NL-NB,Hoogerheide,
2530,EICK,ORK,Cork International Airport,51.841301,-8.49111,EU,IE,IE-CO,Cork,
2532,EIDL,CFN,Donegal Airport,55.0442009,-8.340999603,EU,IE,IE-DL,Donegal,
2533,EIDW,DUB,Dublin Airport,53.428713,-6.262121,EU,IE,IE-D,Dublin,
2534,EIKN,NOC,Ireland West Airport Knock,53.910439,-8.817002,EU,IE,IE-MO,Charlestown,
2535,EIKY,KIR,Kerry Airport,52.180901,-9.52378,EU,IE,IE-KY,Farranfore,
2537,EINN,SNN,Shannon Airport,52.702,-8.92482,EU,IE,IE-CE,Shannon,
2538,EISG,SXL,Sligo Airport,54.28020096,-8.599209785,EU,IE,IE-SO,Sligo,
2539,EIWF,WAT,Waterford Airport,52.187199,-7.08696,EU,IE,IE-WD,Waterford,
2540,EKAH,AAR,Aarhus Airport,56.303331,10.618286,EU,DK,DK-82,Aarhus,
2541,EKBI,BLL,Billund Airport,55.740335,9.157019,EU,DK,DK-83,Billund,
2542,EKCH,CPH,Copenhagen Kastrup Airport,55.61790085,12.65600014,EU,DK,DK-84,Copenhagen,
2543,EKEB,EBJ,Esbjerg Airport,55.525902,8.5534,EU,DK,DK-83,Esbjerg,
2546,EKKA,KRP,Midtjyllands Airport / Air Base Karup,56.297139,9.104311,EU,DK,DK-82,Karup,
2548,EKMB,MRW,Lolland Falster Maribo Airport,54.699447,11.438163,EU,DK,DK-85,Rødby,
2549,EKOD,ODE,Odense Hans Christian Andersen Airport,55.475307,10.327206,EU,DK,DK-83,Odense,
2551,EKRK,RKE,Copenhagen Roskilde Airport,55.585602,12.1314,EU,DK,DK-85,Roskilde,
2552,EKRN,RNN,Bornholm Airport,55.063301,14.7596,EU,DK,DK-84,Rønne,
2553,EKSB,SGD,Sønderborg Airport,54.96440125,9.791729927,EU,DK,DK-83,Sønderborg,
2554,EKSN,CNL,Sindal Airport,57.503502,10.2294,EU,DK,DK-81,Sindal,
2555,EKSP,SKS,Skrydstrup Air Base,55.221048,9.26702,EU,DK,DK-83,Vojens,
2556,EKSV,SQW,Skive Airport,56.550201,9.17298,EU,DK,DK-82,Skive,
2557,EKTS,TED,Thisted Airport,57.068802,8.70522,EU,DK,DK-81,Thisted,
2559,EKVG,FAE,Vágar Airport,62.063256,-7.275782,EU,FO,FO-U-A,Vágar,
2561,EKVJ,STA,Stauning Vestjylland  Airport,55.990101,8.35391,EU,DK,DK-82,Skjern,
2562,EKYT,AAL,Aalborg Airport,57.094763,9.84993,EU,DK,DK-81,Aalborg,
2563,ELLX,LUX,Luxembourg-Findel International Airport,49.626845,6.212134,EU,LU,LU-L,Luxembourg,
2564,ENAL,AES,Ålesund Airport,62.560443,6.110845,EU,NO,NO-15,Ålesund,
2565,ENAN,ANX,"Andøya Airport, Andenes",69.295193,16.139379,EU,NO,NO-18,Andenes,
2566,ENAT,ALF,Alta Airport,69.976097,23.3717,EU,NO,NO-56,Alta,
2568,ENBN,BNN,"Brønnøysund Airport, Brønnøy",65.461098,12.2175,EU,NO,NO-18,Brønnøy,
2569,ENBO,BOO,Bodø Airport,67.269203,14.3653,EU,NO,NO-18,Bodø,
2570,ENBR,BGO,"Bergen Airport, Flesland",60.2934,5.21814,EU,NO,NO-46,Bergen,
2571,ENBS,BJF,Båtsfjord Airport,70.60025,29.692612,EU,NO,NO-56,Båtsfjord,
29255,ENBV,BVG,Berlevåg Airport,70.871517,29.034097,EU,NO,NO-56,Berlevåg,
2572,ENCN,KRS,Kristiansand Airport,58.204201,8.08537,EU,NO,NO-42,Kristiansand(Kjevik),
2574,ENDU,BDU,Bardufoss Airport,69.055801,18.5404,EU,NO,NO-55,Målselv,
2575,ENEV,EVE,Harstad/Narvik Airport,68.491302,16.678101,EU,NO,NO-18,Evenes,
2577,ENFL,FRO,Florø Airport,61.58359909,5.024720192,EU,NO,NO-46,Florø,
2578,ENGM,OSL,Oslo-Gardermoen International Airport,60.193901,11.1004,EU,NO,NO-32,Oslo (Gardermoen),
2579,ENHD,HAU,"Haugesund Airport, Karmøy",59.345299,5.20836,EU,NO,NO-11,Karmøy,
28115,ENHF,HFT,Hammerfest Airport,70.679703,23.6686,EU,NO,NO-56,Hammerfest,
29261,ENHV,HVG,"Honningsvåg Airport, Valan",71.009697,25.983601,EU,NO,NO-56,Honningsvåg,
2581,ENKB,KSU,"Kristiansund Airport, Kvernberget",63.111801,7.82452,EU,NO,NO-15,Kvernberget,
2583,ENKR,KKN,"Kirkenes Airport, Høybuktmoen",69.7258,29.8913,EU,NO,NO-56,Kirkenes,
29264,ENLK,LKN,Leknes Airport,68.15249634,13.6093998,EU,NO,NO-18,Leknes,
29265,ENMH,MEH,Mehamn Airport,71.029701,27.8267,EU,NO,NO-56,Mehamn,
2585,ENML,MOL,"Molde Airport, Årø",62.744701,7.2625,EU,NO,NO-15,Årø,
2586,ENMS,MJF,"Mosjøen Airport, Kjærstad",65.783997,13.2149,EU,NO,NO-18,Mosjøen,
2587,ENNA,LKL,"Lakselv Airport, Banak",70.068802,24.973499,EU,NO,NO-56,Lakselv,
2588,ENNO,NTB,Notodden Airport,59.565071,9.213152,EU,NO,NO-40,Notodden,
2589,ENOL,OLA,Ørland Airport,63.69889832,9.604000092,EU,NO,NO-50,Ørland,
28114,ENOV,HOV,"Ørsta-Volda Airport, Hovden",62.18000031,6.074100018,EU,NO,NO-15,Ørsta,
29277,ENRA,MQN,"Mo i Rana Airport, Røssvoll",66.36389923,14.30140018,EU,NO,NO-18,Mo i Rana,
29278,ENRM,RVK,"Rørvik Airport, Ryum",64.83830261,11.14610004,EU,NO,NO-50,Rørvik,
2591,ENRO,RRS,Røros Airport,62.57839966,11.34230042,EU,NO,NO-50,Røros,
2593,ENSB,LYR,"Svalbard Airport, Longyear",78.246101,15.4656,EU,NO,NO-21,Longyearbyen,
29281,ENSH,SVJ,"Svolvær Airport, Helle",68.243301,14.6692,EU,NO,NO-18,Svolvær,
29282,ENSK,SKN,"Stokmarknes Airport, Skagen",68.578827,15.033417,EU,NO,NO-18,Hadsel,
2595,ENSO,SRP,"Stord Airport, Sørstokken",59.791901,5.34085,EU,NO,NO-46,Leirvik,
2596,ENSR,SOJ,Sørkjosen Airport,69.786797,20.9594,EU,NO,NO-55,Sørkjosen,
2597,ENSS,VAW,"Vardø Airport, Svartnes",70.3554,31.044901,EU,NO,NO-56,Vardø,
2598,ENST,SSJ,"Sandnessjøen Airport, Stokka",65.956802,12.4689,EU,NO,NO-18,Alstahaug,
2599,ENTC,TOS,Tromsø Airport,69.683296,18.9189,EU,NO,NO-55,Tromsø,
2600,ENTO,TRF,"Sandefjord Airport, Torp",59.186699,10.2586,EU,NO,NO-39,Sandefjord(Torp),
2601,ENVA,TRD,"Trondheim Airport, Værnes",63.457802,10.924,EU,NO,NO-50,Trondheim,
29284,ENVD,VDS,Vadsø Airport,70.0653,29.8447,EU,NO,NO-56,Vadsø,
2602,ENZV,SVG,"Stavanger Airport, Sola",58.876701,5.63778,EU,NO,NO-11,Stavanger,
2604,EPBY,BZG,Ignacy Jan Paderewski Bydgoszcz Airport,53.096802,17.977699,EU,PL,PL-KP,Bydgoszcz,
2608,EPGD,GDN,Gdańsk Lech Wałęsa Airport,54.377602,18.4662,EU,PL,PL-PM,Gdańsk,
2609,EPKK,KRK,Kraków John Paul II International Airport,50.077702,19.7848,EU,PL,PL-MA,Balice,
2613,EPKT,KTW,Katowice Wojciech Korfanty International Airport,50.476015,19.080705,EU,PL,PL-SL,Katowice,
309484,EPLB,LUZ,Lublin Airport,51.240157,22.713461,EU,PL,PL-LU,Lublin,
2616,EPLL,LCJ,Łódź Władysław Reymont Airport,51.721901,19.3981,EU,PL,PL-LD,Łódź,
2622,EPMO,WMI,Warsaw Modlin Airport,52.451099,20.6518,EU,PL,PL-MZ,Nowy Dwór Mazowiecki,
2625,EPPO,POZ,Poznań-Ławica Airport,52.421598,16.823359,EU,PL,PL-WP,Poznań,
2628,EPRA,RDO,Warsaw Radom Airport,51.38937,21.214742,EU,PL,PL-MZ,Radom,
2629,EPRZ,RZE,Rzeszów-Jasionka Airport,50.109791,22.024155,EU,PL,PL-PK,Jasionka,
2630,EPSC,SZZ,Solidarity Szczecin–Goleniów Airport,53.584702,14.9022,EU,PL,PL-ZP,Szczecin(Glewice),
2635,EPSY,SZY,Olsztyn-Mazury Airport,53.481899,20.9377,EU,PL,PL-WN,Szymany,
2637,EPWA,WAW,Warsaw Chopin Airport,52.165699,20.9671,EU,PL,PL-MZ,Warsaw,
2638,EPWR,WRO,Copernicus Wrocław Airport,51.103719,16.882096,EU,PL,PL-DS,Wrocław,
2639,EPZG,IEG,Zielona Góra-Babimost Airport,52.1385,15.7986,EU,PL,PL-LB,Nowe Kramsko,
2646,ESDF,RNB,Ronneby Airport,56.266701,15.265,EU,SE,SE-K,Ronneby,
2648,ESGG,GOT,Göteborg Landvetter Airport,57.6628,12.2798,EU,SE,SE-Q,Göteborg,
2649,ESGJ,JKG,Jönköping Airport,57.75759888,14.06869984,EU,SE,SE-F,Jönköping,
2652,ESGP,GSE,Säve Airport,57.7747,11.8704,EU,SE,SE-Q,Göteborg,
2653,ESGR,KVB,Skövde Airport,58.456402,13.9727,EU,SE,SE-Q,Skövde,
2654,ESGT,THN,Trollhättan-Vänersborg Airport,58.31809998,12.34500027,EU,SE,SE-Q,Trollhättan,
2658,ESKK,KSK,Karlskoga Airport,59.345901,14.4959,EU,SE,SE-T,Karlskoga,
2659,ESKM,MXX,Mora Airport,60.957901,14.5114,EU,SE,SE-W,Mora,
2660,ESKN,NYO,Stockholm Skavsta Airport,58.789656,16.911479,EU,SE,SE-D,Nyköping,
316498,ESKS,SCR,Scandinavian Mountains Airport,61.16508,12.83352,EU,SE,SE-W,Malung-Sälen,
2664,ESMK,KID,Kristianstad Airport,55.9217,14.0855,EU,SE,SE-M,Kristianstad,
2668,ESMQ,KLR,Kalmar Airport,56.685501,16.2876,EU,SE,SE-H,Kalmar,
2669,ESMS,MMX,Malmö Sturup Airport,55.535564,13.376327,EU,SE,SE-M,Malmö,
2670,ESMT,HAD,Halmstad Airport,56.69110107,12.82019997,EU,SE,SE-N,Halmstad,
2672,ESMX,VXO,Växjö Kronoberg Airport,56.92910004,14.72799969,EU,SE,SE-G,Växjö,
2676,ESNG,GEV,Gällivare Airport,67.13240051,20.81459999,EU,SE,SE-BD,Gällivare,
2679,ESNK,KRF,Kramfors-Sollefteå Höga Kusten Airport,63.048599,17.7689,EU,SE,SE-Y,Nyland,
2680,ESNL,LYC,Lycksele Airport,64.548302,18.7162,EU,SE,SE-AC,Lycksele,
2682,ESNN,SDL,Sundsvall-Härnösand Airport,62.52809906,17.44389915,EU,SE,SE-Y,Sundsvall/ Härnösand,
2683,ESNO,OER,Örnsköldsvik Airport,63.40829849,18.98999977,EU,SE,SE-Y,Örnsköldsvik,
2685,ESNQ,KRN,Kiruna Airport,67.821999,20.3368,EU,SE,SE-BD,Kiruna,
2687,ESNS,SFT,Skellefteå Airport,64.62480164,21.07690048,EU,SE,SE-AC,Skellefteå,
2689,ESNU,UME,Umeå Airport,63.791801,20.282801,EU,SE,SE-AC,Umeå,
2690,ESNV,VHM,Vilhelmina South Lapland Airport,64.579102,16.833599,EU,SE,SE-AC,Vilhelmina,
2691,ESNX,AJR,Arvidsjaur Airport,65.59030151,19.28190041,EU,SE,SE-BD,Arvidsjaur,
2692,ESNY,SOO,Söderhamn Airport,61.261501,17.0991,EU,SE,SE-X,Söderhamn,
29358,ESNZ,OSD,Åre Östersund Airport,63.193546,14.504168,EU,SE,SE-Z,Östersund,
2693,ESOE,ORB,Örebro Airport,59.22370148,15.03800011,EU,SE,SE-T,Örebro,
2695,ESOK,KSD,Karlstad Airport,59.444698,13.3374,EU,SE,SE-S,Karlstad,
2696,ESOW,VST,Stockholm Västerås Airport,59.589401,16.6336,EU,SE,SE-U,Stockholm / Västerås,
2697,ESPA,LLA,Luleå Airport,65.5438,22.122,EU,SE,SE-BD,Luleå,
2701,ESSA,ARN,Stockholm-Arlanda Airport,59.64849,17.928829,EU,SE,SE-AB,Stockholm,
2702,ESSB,BMA,Stockholm-Bromma Airport,59.354401,17.9417,EU,SE,SE-AB,Stockholm,
2703,ESSD,BLE,Dala Airport,60.422001,15.5152,EU,SE,SE-W,Borlange,
2705,ESSK,GVX,Gävle Sandviken Airport,60.5933,16.951401,EU,SE,SE-X,Gävle / Sandviken,
2706,ESSL,LPI,Linköping City Airport,58.404909,15.684499,EU,SE,SE-E,Linköping,
2707,ESSP,NRK,Norrköping Airport,58.5862999,16.25060081,EU,SE,SE-E,Norrköping,
2708,ESST,TYF,Torsby Airport,60.1576,12.9913,EU,SE,SE-S,Torsby,
2709,ESSU,EKT,Eskilstuna Airport,59.351101,16.708401,EU,SE,SE-D,Eskilstuna,
2710,ESSV,VBY,Visby Airport,57.6628,18.346201,EU,SE,SE-I,Visby,
2711,ESTA,AGH,Ängelholm-Helsingborg Airport,56.29610062,12.84710026,EU,SE,SE-M,Ängelholm,
2713,ESUD,SQO,Storuman Airport,64.960899,17.6966,EU,SE,SE-AC,Storuman,
2717,ETAD,SPM,Spangdahlem Air Base,49.976507,6.698413,EU,DE,DE-RP,Trier,
2718,ETAR,RMS,Ramstein Air Base,49.436901,7.60028,EU,DE,DE-RP,Ramstein-Miesenbach,
2724,ETHF,FRZ,Fritzlar Army Airfield,51.1146,9.286,EU,DE,DE-HE,Fritzlar,
2734,ETMN,FCN,Sea-Airport Cuxhaven/Nordholz / Nordholz Naval Airbase,53.767689,8.659201,EU,DE,DE-NI,Wurster Nordseeküste,
2736,ETNG,GKE,Geilenkirchen Air Base,50.9608,6.04242,EU,DE,DE-NW,Geilenkirchen,
2739,ETNL,RLG,Rostock-Laage Airport,53.918201,12.2783,EU,DE,DE-MV,Laage,
2741,ETNS,WBG,Schleswig Air Base,54.459301,9.51633,EU,DE,DE-SH,Jagel,
2747,ETOU,WIE,Wiesbaden Army Airfield,50.04980087,8.325400352,EU,DE,DE-HE,Wiesbaden,
2753,ETSI,IGS,Ingolstadt Manching Airport,48.71569824,11.5340004,EU,DE,DE-BY,Manching,
2757,EVLA,LPX,Liepāja International Airport,56.517502,21.096901,EU,LV,LV-112,Liepāja,
2758,EVRA,RIX,Riga International Airport,56.920752,23.970711,EU,LV,LV-062,Riga,
2760,EYKA,KUN,Kaunas International Airport,54.963965,24.08582,EU,LT,LT-KU,Kaunas,
2762,EYPA,PLQ,Palanga International Airport,55.973202,21.093901,EU,LT,LT-KL,Palanga,
2763,EYPP,PNV,Panevėžys Air Base,55.72940063,24.46080017,EU,LT,LT-PN,Panevėžys,
2764,EYSA,SQQ,Šiauliai International Airport,55.89390182,23.39500046,EU,LT,LT-SA,Šiauliai,
2766,EYVI,VNO,Vilnius International Airport,54.634102,25.285801,EU,LT,LT-VL,Vilnius,
2767,FAAB,ALJ,Alexander Bay Airport,-28.575001,16.5333,AF,ZA,ZA-NC,Alexander Bay,
2768,FAAG,AGZ,Aggeneys Airport,-29.281799,18.8139,AF,ZA,ZA-NC,Aggeneys,
2771,FABE,BIY,Bisho Airport,-32.897099,27.2791,AF,ZA,ZA-EC,Bisho,
2772,FABL,BFN,Bram Fischer International Airport,-29.092699,26.302401,AF,ZA,ZA-FS,Bloemfontein,
2775,FACT,CPT,Cape Town International Airport,-33.97403,18.604333,AF,ZA,ZA-WC,Cape Town,
2779,FAEL,ELS,King Phalo Airport,-33.035599,27.825899,AF,ZA,ZA-EC,East London,
2781,FAFB,FCB,Ficksburg Sentraoes Airport,-28.82309914,27.90889931,AF,ZA,ZA-FS,Ficksburg,
2782,FAGC,GCJ,Grand Central Airport,-25.98629951,28.14010048,AF,ZA,ZA-GT,Midrand,
2783,FAGG,GRJ,George Airport,-34.0056,22.378902,AF,ZA,ZA-WC,George,
2784,FAGM,QRA,Rand Airport,-26.2425,28.151199,AF,ZA,ZA-GT,Johannesburg,
2789,FAHR,HRS,Harrismith Airport,-28.2351,29.106199,AF,ZA,ZA-FS,Harrismith,
29953,FAHT,HDS,Eastgate Airport / Air Force Base Hoedspruit,-24.361864,31.052921,AF,ZA,ZA-NP,Hoedspruit,
2793,FAKD,KXE,P C Pelser Airport,-26.871099,26.718,AF,ZA,ZA-NW,Klerksdorp,
2794,FAKM,KIM,Kimberley Airport,-28.805401,24.764872,AF,ZA,ZA-NC,Kimberley,
2795,FAKN,MQP,Kruger Mpumalanga International Airport,-25.383327,31.105325,AF,ZA,ZA-MP,Mbombela,
2798,FAKU,KMH,Johan Pienaar Airport,-27.456596,23.411946,AF,ZA,ZA-NC,Kuruman,
2799,FAKZ,KLZ,Kleinsee Airport,-29.68840027,17.09399986,AF,ZA,ZA-NC,Kleinsee,
2800,FALA,HLA,Lanseria International Airport,-25.938964,27.926642,AF,ZA,ZA-GT,Johannesburg,
2801,FALC,LMR,Lime Acres Finsch Mine Airport,-28.36009979,23.43910027,AF,ZA,ZA-NC,Lime Acres,
300795,FALE,DUR,King Shaka International Airport,-29.61444444,31.11972222,AF,ZA,ZA-NL,Durban,
2805,FALW,SDB,Langebaanweg Airport,-32.96889877,18.1602993,AF,ZA,ZA-WC,Langebaanweg,
2806,FALY,LAY,Ladysmith Airport,-28.58169937,29.74970055,AF,ZA,ZA-NL,Ladysmith,
2808,FAMD,AAM,Malamala Airport,-24.816866,31.544085,AF,ZA,ZA-MP,Malamala,
2809,FAMG,MGH,Margate Airport,-30.85740089,30.34300041,AF,ZA,ZA-NL,Margate,
2812,FAMM,MBD,Mmabatho International Airport,-25.79840088,25.54800034,AF,ZA,ZA-NW,Mafeking,
2815,FAMU,MZQ,Mkuze Airport,-27.626101,32.0443,AF,ZA,ZA-NL,Mkuze,
2816,FANC,NCS,Newcastle Airport,-27.77059937,29.9769001,AF,ZA,ZA-NL,Newcastle,
2819,FAOH,OUH,Oudtshoorn Airport,-33.60699844,22.18899918,AF,ZA,ZA-WC,Oudtshoorn,FAOH
31055,FAOR,JNB,O.R. Tambo International Airport,-26.140081,28.246801,AF,ZA,ZA-GT,Johannesburg,
2820,FAPE,PLZ,Chief Dawid Stuurman International Airport,-33.989715,25.617353,AF,ZA,ZA-EC,Gqeberha (Port Elizabeth),
2821,FAPG,PBZ,Plettenberg Bay Airport,-34.08816,23.328723,AF,ZA,ZA-WC,Plettenberg Bay,
2822,FAPH,PHW,Hendrik Van Eck Airport,-23.93720055,31.15539932,AF,ZA,ZA-NP,Phalaborwa,
2824,FAPJ,JOH,Port St Johns Airport,-31.60612,29.52175,AF,ZA,ZA-EC,Port St Johns,
2825,FAPM,PZB,Pietermaritzburg Airport,-29.64900017,30.39870071,AF,ZA,ZA-NL,Pietermaritzburg,
2826,FAPN,NTY,Pilanesberg International Airport,-25.333799,27.173401,AF,ZA,ZA-NW,Pilanesberg,
2827,FAPP,PTG,Polokwane International Airport,-23.845269,29.458615,AF,ZA,ZA-NP,Polokwane,
2828,FAPS,PCF,Potchefstroom Airport,-26.67099953,27.08189964,AF,ZA,ZA-NW,Potchefstroom,
2830,FAQT,UTW,Queenstown Airport,-31.92020035,26.88220024,AF,ZA,ZA-EC,Queenstown,
2831,FARB,RCB,Richards Bay Airport,-28.74099922,32.09209824,AF,ZA,ZA-NL,Richards Bay,
2833,FARS,ROD,Robertson Airport,-33.812199,19.9028,AF,ZA,ZA-WC,Robertson,
2834,FASB,SBU,Springbok Airport,-29.68930054,17.93959999,AF,ZA,ZA-NC,Springbok,
2835,FASC,ZEC,Secunda Airport,-26.52409935,29.17009926,AF,ZA,ZA-MP,Secunda,
2839,FASS,SIS,Sishen Airport,-27.6486,22.9993,AF,ZA,ZA-NC,Sishen,
2841,FASZ,SZK,Skukuza Airport,-24.96085,31.588587,AF,ZA,ZA-MP,Skukuza,
2845,FATZ,LTA,Tzaneen Airport,-23.8244,30.3293,AF,ZA,ZA-NP,Tzaneen,
2846,FAUL,ULD,Prince Mangosuthu Buthelezi Airport,-28.32060051,31.41650009,AF,ZA,ZA-NL,Ulundi,
2847,FAUP,UTN,Upington Airport,-28.400246,21.263592,AF,ZA,ZA-NC,Upington,
2848,FAUT,UTT,K. D. Matanzima Airport,-31.54636318,28.6733551,AF,ZA,ZA-EC,Mthatha,
2849,FAVB,VRU,Vryburg Airport,-26.98240089,24.72879982,AF,ZA,ZA-NW,Vyrburg,
2850,FAVG,VIR,Virginia Airport,-29.770599,31.058399,AF,ZA,ZA-NL,Durban,
2852,FAVR,VRE,Vredendal Airport,-31.64100075,18.5447998,AF,ZA,ZA-WC,Vredendal,
2854,FAWB,PRY,Wonderboom Airport,-25.6539,28.224199,AF,ZA,ZA-GT,Pretoria,
2856,FAWK,WKF,Waterkloof Air Force Base,-25.82999992,28.22249985,AF,ZA,ZA-GT,Pretoria,
2860,FBFT,FRW,Phillip Gaonwe Matante International Airport,-21.159183,27.468826,AF,BW,BW-FR,Francistown,
2861,FBJW,JWA,Jwaneng Airport,-24.602301,24.691,AF,BW,BW-JW,Jwaneng,
2862,FBKE,BBK,Kasane International Airport,-17.831653,25.166195,AF,BW,BW-CH,Kasane,
2863,FBMN,MUB,Maun International Airport,-19.970491,23.431409,AF,BW,BW-NW,Maun,
2864,FBSK,GBE,Sir Seretse Khama International Airport,-24.555201,25.9182,AF,BW,BW-GA,Gaborone,
2865,FBSN,SXN,Sua Pan Airport,-20.5534,26.115801,AF,BW,BW-ST,Sowa,
2866,FBSP,PKW,Selebi Phikwe Airport,-22.0583,27.8288,AF,BW,BW-SP,Selebi Phikwe,
2868,FCBB,BZV,Maya-Maya International Airport,-4.2517,15.253,AF,CG,CG-12,Brazzaville,
323021,FCOD,OLL,Oyo Ollombo Airport,-1.226666,15.91,AF,CG,CG-14,Oyo,
2869,FCOO,FTX,Owando Airport,-0.524566,15.93782,AF,CG,CG-8,Owando,
2870,FCOU,OUE,Ouesso Airport,1.61599,16.037901,AF,CG,CG-13,,
30920,FCPL,DIS,Ngot Nzoungou Airport,-4.20635,12.6599,AF,CG,CG-9,Dolisie,
2871,FCPP,PNR,Antonio Agostinho-Neto International Airport,-4.81603,11.8866,AF,CG,CG-5,Pointe Noire,
2872,FDMS,MTS,Matsapha International Airport,-26.528919,31.307577,AF,SZ,SZ-MA,Manzini,
308033,FDSK,SHO,King Mswati III International Airport,-26.358611,31.716944,AF,SZ,SZ-LU,Mpaka,
2873,FEFF,BGF,Bangui M'Poko International Airport,4.39848,18.518801,AF,CF,CF-MP,Bangui,
2874,FEFT,BBT,Berbérati Airport,4.221580029,15.78639984,AF,CF,CF-HS,Berbérati,
2875,FGBT,BSG,Bata International Airport,1.90547,9.80568,AF,GQ,GQ-LI,Bata,
318497,FGMY,GEM,President Obiang Nguema International Airport,1.676437,11.024904,AF,GQ,GQ-WN,Mengomeyén,
2876,FGSL,SSG,Malabo International Airport,3.75527,8.70872,AF,GQ,GQ-BN,Malabo,
2877,FHAW,ASI,RAF Ascension Island,-7.970179,-14.392744,AF,SH,SH-AC,Cat Hill,
318444,FHSH,HLE,Saint Helena International Airport,-15.958898,-5.646066,AF,SH,SH-SH,Jamestown,
2878,FIMP,MRU,Sir Seewoosagur Ramgoolam International Airport,-20.430201,57.683601,AF,MU,MU-GP,Plaine Magnien,
2879,FIMR,RRG,Sir Charles Gaetan Duval Airport,-19.756696,63.359326,AF,MU,MU-RO,Port Mathurin,
2880,FJDG,NKW,Naval Support Facility Diego Garcia,-7.31327,72.411102,AS,IO,IO-U-A,Diego Garcia,
2881,FKKC,TKC,Tiko Airport,4.089190006,9.3605299,AF,CM,CM-SW,Tiko,
2882,FKKD,DLA,Douala International Airport,4.00608,9.71948,AF,CM,CM-LT,Douala,
2883,FKKL,MVR,Salak Airport,10.4513998,14.25739956,AF,CM,CM-EN,Maroua,
2884,FKKM,FOM,Foumban Nkounja Airport,5.63692,10.7508,AF,CM,CM-OU,Foumban,
2885,FKKN,NGE,N'Gaoundéré Airport,7.357009888,13.55920029,AF,CM,CM-AD,N'Gaoundéré,
2886,FKKR,GOU,Garoua International Airport,9.334785,13.372129,AF,CM,CM-NO,Garoua,
2887,FKKU,BFX,Bafoussam Airport,5.536920071,10.35459995,AF,CM,CM-OU,Bafoussam,
2888,FKKV,BPC,Bamenda Airport,6.03924,10.1226,AF,CM,CM-NW,Bamenda,
2889,FKKY,YAO,Yaoundé Ville Airport,3.83604,11.5235,AF,CM,CM-CE,Yaoundé,
2890,FKYS,NSI,Yaoundé Nsimalen International Airport,3.72256,11.5533,AF,CM,CM-CE,Yaoundé,
2891,FLKE,CGJ,Kasompe Airport,-12.5728,27.8939,AF,ZM,ZM-08,Chingola,
2893,FLLI,LVI,Harry Mwanga Nkumbula International Airport,-17.821524,25.819642,AF,ZM,ZM-07,Livingstone,
2894,FLLS,LUN,Kenneth Kaunda International Airport,-15.330833,28.452722,AF,ZM,ZM-09,Lusaka,
2895,FLMF,MFU,Mfuwe International Airport,-13.2589,31.9366,AF,ZM,ZM-03,Mfuwe,
2896,FLMG,MNR,Mongu Airport,-15.2545,23.1623,AF,ZM,ZM-01,Mongu,
525659,FLSK,NLA,Simon Mwansa Kapwepwe International Airport,-12.96513,28.515624,AF,ZM,ZM-08,Ndola,
2898,FLSO,KIW,Southdowns Airport,-12.9005,28.1499,AF,ZM,ZM-08,Kitwe,
2901,FMCH,HAH,Prince Said Ibrahim International Airport,-11.5337,43.2719,AF,KM,KM-G,Moroni,
2902,FMCI,NWA,Mohéli Bandar Es Eslam Airport,-12.298096,43.766496,AF,KM,KM-M,Fomboni,
2903,FMCV,AJN,Ouani Airport,-12.131047,44.430044,AF,KM,KM-A,Ouani,
2904,FMCZ,DZA,Dzaoudzi Pamandzi International Airport,-12.809319,45.281815,AF,YT,YT-U-A,Dzaoudzi,
2905,FMEE,RUN,Roland Garros Airport,-20.890087,55.518894,AF,RE,RE-SD,Sainte-Marie,
2906,FMEP,ZSE,Saint-Pierre Pierrefonds Airport,-21.319362,55.422506,AF,RE,RE-SR,Saint-Pierre,
2908,FMMI,TNR,Ivato International Airport,-18.7969,47.478802,AF,MG,MG-T,Antananarivo,
2909,FMMN,ZVA,Miandrivazo Airport,-19.562799,45.450802,AF,MG,MG-U,Miandrivazo,
2910,FMMS,SMS,Sainte Marie Airport,-17.093901,49.8158,AF,MG,MG-A,Vohilava,
2911,FMMT,TMM,Toamasina Ambalamanasy Airport,-18.113537,49.392262,AF,MG,MG-A,Toamasina,
2912,FMMV,MOQ,Morondava Airport,-20.2847,44.3176,AF,MG,MG-U,Morondava,
2913,FMNA,DIE,Arrachart Airport,-12.3494,49.291698,AF,MG,MG-D,Antisiranana,
2914,FMNC,WMR,Mananara Nord Airport,-16.1639,49.7738,AF,MG,MG-A,Mananara Nord,
2915,FMND,ZWA,Andapa Airport,-14.65170002,49.62060165,AF,MG,MG-D,,
2917,FMNH,ANM,Antsirabe Airport,-14.9994,50.320202,AF,MG,MG-D,Antsirabe,
2918,FMNL,HVA,Analalava Airport,-14.629514,47.763555,AF,MG,MG-M,Analalava,
2919,FMNM,MJN,Amborovy Airport,-15.666842,46.351233,AF,MG,MG-M,Mahajanga,
2920,FMNN,NOS,Nosy Be-Fascene International Airport,-13.3121,48.3148,AF,MG,MG-D,Nosy Be,
2921,FMNQ,BPY,Besalampy Airport,-16.74453,44.482484,AF,MG,MG-M,Besalampy,
2922,FMNR,WMN,Maroantsetra Airport,-15.437742,49.689081,AF,MG,MG-A,Maroantsetra,
2923,FMNS,SVB,Sambava Airport,-14.2786,50.174702,AF,MG,MG-D,Sambava,
2924,FMNV,VOH,Vohemar Airport,-13.3758,50.0028,AF,MG,MG-D,Vohemar,
2925,FMNW,WAI,Ambalabe Airport,-14.8988,47.9939,AF,MG,MG-M,Antsohihy,
2927,FMSD,FTU,Tôlanaro Airport,-25.038099,46.9561,AF,MG,MG-U,Tôlanaro,
2928,FMSF,WFI,Fianarantsoa Airport,-21.441601,47.111698,AF,MG,MG-F,Fianarantsoa,
2930,FMSK,WVK,Manakara Airport,-22.119699,48.021702,AF,MG,MG-F,Manakara,
2931,FMSM,MNJ,Mananjary Airport,-21.201799,48.358299,AF,MG,MG-F,Mananjary,
2932,FMSR,MXM,Morombe Airport,-21.753837,43.374753,AF,MG,MG-U,Morombe,
2933,FMST,TLE,Toliara Airport,-23.3834,43.7285,AF,MG,MG-U,Toliara,
2934,FNBC,SSY,Mbanza Congo Airport,-6.269899845,14.24699974,AF,AO,AO-ZAI,Mbanza Congo,
2935,FNBG,BUG,Benguela Airport,-12.609,13.4037,AF,AO,AO-BGU,Benguela,
312665,FNBJ,NBJ,Dr. Antonio Agostinho Neto International Airport,-9.050734,13.499078,AF,AO,AO-LUA,Luanda (Ícolo e Bengo),
2936,FNCA,CAB,Cabinda Airport,-5.59839,12.188145,AF,AO,AO-CAB,Cabinda,
30813,FNCT,CBT,Catumbela Airport,-12.4792,13.4869,AF,AO,AO-BGU,Catumbela,
2937,FNDU,DUE,Dundo Airport,-7.400889874,20.81850052,AF,AO,AO-LNO,Chitato,
2938,FNGI,VPE,Ngjiva Pereira Airport,-17.0435009,15.68379974,AF,AO,AO-CNN,Ngiva,
2939,FNHU,NOV,Albano Machado Airport,-12.8089,15.7605,AF,AO,AO-HUA,Huambo,
2940,FNKU,SVP,Kuito Airport,-12.40460014,16.94739914,AF,AO,AO-BIE,Kuito,
2942,FNLU,LAD,Quatro de Fevereiro International Airport,-8.85837,13.2312,AF,AO,AO-LUA,Luanda,
2944,FNMA,MEG,Malanje Airport,-9.525090218,16.31240082,AF,AO,AO-MAL,Malanje,
2945,FNME,SPP,Menongue Airport,-14.6576004,17.71980095,AF,AO,AO-CCU,Menongue,
2946,FNMO,MSZ,Welwitschia Mirabilis International Airport,-15.2612,12.1468,AF,AO,AO-NAM,Moçâmedes,
2947,FNNG,GXG,Negage Airport,-7.754509926,15.2876997,AF,AO,AO-UIG,Negage,
2948,FNPA,PBN,Porto Amboim Airport,-10.722,13.7655,AF,AO,AO-CUS,Port Amboim,
2949,FNSA,VHC,Saurimo Airport,-9.68907,20.4319,AF,AO,AO-LSU,Saurimo,
2950,FNSO,SZA,Soyo Airport,-6.141089916,12.37180042,AF,AO,AO-ZAI,Soyo,
2951,FNSU,NDD,Sumbe Airport,-11.1679,13.8475,AF,AO,AO-CUS,Sumbe,
2952,FNUB,SDD,Lubango Mukanka International Airport,-14.924839,13.576653,AF,AO,AO-HUI,Lubango,
2953,FNUE,LUO,Luena Airport,-11.7681,19.897699,AF,AO,AO-MOX,Luena,
2954,FNUG,UGO,Uige Airport,-7.60307,15.0278,AF,AO,AO-UIG,Uige,
2955,FNXA,XGN,Xangongo Airport,-16.7553997,14.96529961,AF,AO,AO-CNN,Xangongo,
2957,FOGK,KOU,Koulamoutou Mabimbi Airport,-1.18461,12.4413,AF,GA,GA-7,Koulamoutou,
2958,FOGM,MJL,Mouilla Ville Airport,-1.84514,11.0567,AF,GA,GA-4,Mouila,
2959,FOGO,OYE,Oyem Airport,1.543110013,11.58139992,AF,GA,GA-9,Oyem,
2960,FOGQ,OKN,Okondja Airport,-0.665214,13.6731,AF,GA,GA-2,Okondja,
2961,FOGR,LBQ,Lambarene Airport,-0.704389,10.2457,AF,GA,GA-3,Lambarene,
2962,FOOB,BMM,Bitam Airport,2.07564,11.4932,AF,GA,GA-9,Bitam,
2963,FOOG,POG,Port Gentil International Airport,-0.711739,8.75438,AF,GA,GA-8,Port Gentil,
2964,FOOH,OMB,Omboue Hospital Airport,-1.57473,9.26269,AF,GA,GA-8,Omboue,
2965,FOOK,MKU,Makokou Airport,0.579210997,12.89089966,AF,GA,GA-6,Makokou,
2966,FOOL,LBV,Libreville Leon M'ba International Airport,0.458951,9.41214,AF,GA,GA-1,Libreville,
2967,FOON,MVB,M'Vengue El Hadj Omar Bongo Ondimba International Airport,-1.65616,13.438,AF,GA,GA-2,Franceville,
2968,FPPR,PCP,Principe Airport,1.661155,7.411081,AF,ST,ST-P,São Tomé & Príncipe,
2969,FPST,TMS,São Tomé International Airport,0.378175,6.71215,AF,ST,ST-01,São Tomé,
2970,FQBR,BEW,Beira International Airport,-19.7964,34.9076,AF,MZ,MZ-S,Beira,
2971,FQCH,VPY,Chimoio Airport,-19.15130043,33.42900085,AF,MZ,MZ-B,Chimoio,
2972,FQIN,INH,Inhambane Airport,-23.8764,35.408501,AF,MZ,MZ-I,Inhambane,
2973,FQLC,VXC,Lichinga Airport,-13.274,35.2663,AF,MZ,MZ-A,Lichinga,
2975,FQMA,MPM,Maputo Airport,-25.920799,32.572601,AF,MZ,MZ-MPM,Maputo,
2976,FQMD,MUD,Mueda Airport,-11.6729,39.563099,AF,MZ,MZ-P,Mueda,
2977,FQMP,MZB,Mocímboa da Praia Airport,-11.3618,40.3549,AF,MZ,MZ-P,Mocímboa da Praia,
2979,FQNC,MNC,Nacala International Airport,-14.4882,40.7122,AF,MZ,MZ-N,Nacala,
2980,FQNP,APL,Nampula Airport,-15.1056,39.281799,AF,MZ,MZ-N,Nampula,
2981,FQPB,POL,Pemba Airport,-12.993302,40.524867,AF,MZ,MZ-P,Pemba,
2982,FQQL,UEL,Quelimane Airport,-17.85549927,36.86909866,AF,MZ,MZ-Q,Quelimane,
2984,FQTT,TET,Tete Airport,-16.104799,33.640202,AF,MZ,MZ-T,Tete,
2986,FQVL,VNX,Vilankulo Airport,-22.01840019,35.31330109,AF,MZ,MZ-I,Vilanculo,
2993,FSIA,SEZ,Seychelles International Airport,-4.67434,55.521801,AF,SC,SC-20,Victoria,
2994,FSPP,PRI,Praslin Island Airport,-4.319256,55.691561,AF,SC,SC-14,Praslin Island,
2996,FTTC,AEH,Abeche Airport,13.847,20.844299,AF,TD,TD-OD,Abeche,
2997,FTTD,MQQ,Moundou Airport,8.628503,16.074241,AF,TD,TD-LO,Moundou,
2998,FTTJ,NDJ,N'Djamena International Airport,12.1337,15.034,AF,TD,TD-ND,N'Djamena,
2999,FTTY,FYT,Faya-Largeau Airport,17.917101,19.111099,AF,TD,TD-BO,Faya-Largeau,
3000,FVBU,BUQ,Joshua Mqabuko Nkomo International Airport,-20.016284,28.622897,AF,ZW,ZW-BU,Bulawayo,
3003,FVCZ,BFO,Buffalo Range Airport,-21.008101,31.5786,AF,ZW,ZW-MV,Chiredzi,
3004,FVFA,VFA,Victoria Falls International Airport,-18.097437,25.836867,AF,ZW,ZW-MN,Victoria Falls,
3005,FVHA,HRE,Robert Gabriel Mugabe International Airport,-17.931801,31.0928,AF,ZW,ZW-HA,Harare,
3006,FVKB,KAB,Kariba Airport,-16.5198,28.885,AF,ZW,ZW-MW,Kariba,
3010,FVMV,MVZ,Masvingo International Airport,-20.0553,30.8591,AF,ZW,ZW-MV,Masvingo,
3013,FVTL,GWE,Josiah Tungamirai Air Force Base,-19.436718,29.861945,AF,ZW,ZW-MI,Gweru,
3014,FVWN,HWN,Hwange National Park Airport,-18.6299,27.021,AF,ZW,ZW-MN,Gwayi River Farms,
3015,FWCL,BLZ,Chileka International Airport,-15.677189,34.972319,AF,MW,MW-BL,Blantyre,
30602,FWDW,DWA,Dwangwa Airport,-12.517527,34.131877,AF,MW,MW-NK,Dwangwa,
3016,FWKA,KGJ,Karonga Airport,-9.953571,33.893264,AF,MW,MW-KR,Karonga,
3018,FWKI,LLW,Kamuzu International Airport,-13.7894,33.780998,AF,MW,MW-LI,Lumbadzi,
3020,FWUU,ZZU,Mzuzu Airport,-11.4447,34.011799,AF,MW,MW-MZ,Mzuzu,
3022,FXMM,MSU,Moshoeshoe I International Airport,-29.456277,27.554456,AF,LS,LS-A,Maseru(Mazenod),
3024,FYAR,ADI,Arandis Airport,-22.461875,14.979322,AF,,NA-ER,Arandis,
3026,FYGF,GFY,Grootfontein Airport,-19.6022,18.1227,AF,,NA-OD,Grootfontein,
3027,FYKM,MPA,Katima Mulilo Airport,-17.634258,24.176688,AF,,NA-CA,Mpacha,
3028,FYKT,KMP,Keetmanshoop Airport,-26.539801,18.111401,AF,,NA-KA,Keetmanshoop,
3029,FYLZ,LUD,Luderitz Airport,-26.68740082,15.24289989,AF,,NA-KA,Luderitz,
3031,FYOA,OND,Ondangwa Airport,-17.878201,15.9526,AF,,NA-ON,Ondangwa,
3032,FYOG,OMD,Oranjemund Airport,-28.585318,16.44638,AF,,NA-KA,Oranjemund,
3035,FYRU,NDU,Rundu Airport,-17.956499,19.7194,AF,,NA-KE,Rundu,
3036,FYTM,TSB,Tsumeb Airport,-19.262079,17.732509,AF,,NA-OT,Tsumeb,
3037,FYWB,WVB,Walvis Bay International Airport,-22.979332,14.647102,AF,,NA-ER,Walvis Bay(Rooikop),
3038,FYWE,ERS,Eros Airport,-22.60492,17.079002,AF,,NA-KH,Windhoek,
3039,FYWH,WDH,Hosea Kutako International Airport,-22.4799,17.4709,AF,,NA-KH,Windhoek,
3040,FZAA,FIH,Ndjili International Airport,-4.38575,15.4446,AF,CD,CD-KN,Kinshasa,
3041,FZAB,NLO,Ndolo Airport,-4.326660156,15.32750034,AF,CD,CD-KN,N'dolo,
3044,FZBO,FDU,Bandundu Airport,-3.31132,17.381701,AF,CD,CD-KL,Bandundu,
3045,FZCA,KKW,Kikwit Airport,-5.03577,18.785601,AF,CD,CD-KL,Kikwit,
3046,FZEA,MDK,Mbandaka Airport,0.022600001,18.2887001,AF,CD,CD-EQ,Mbandaka,
3047,FZFD,BDT,Gbadolite Airport,4.252745,20.975271,AF,CD,CD-NU,Gbadolite,
3048,FZFK,GMA,Gemena Airport,3.23537,19.771299,AF,CD,CD-SU,Gemena,
3050,FZGA,LIQ,Lisala Airport,2.17066,21.496901,AF,CD,CD-MO,Lisala,
3052,FZIC,FKI,Bangoka International Airport,0.481639,25.337999,AF,CD,CD-TO,Kisangani,
3053,FZJH,IRP,Matari Airport,2.82761,27.588301,AF,CD,CD-HU,Isiro,
3054,FZKA,BUX,Bunia Airport,1.565743,30.220685,AF,CD,CD-IT,Bunia,
3055,FZKJ,BZU,Buta Zega Airport,2.818058,24.793997,AF,CD,CD-BU,Buta,
3056,FZMA,BKY,Bukavu Kavumu Airport,-2.30898,28.8088,AF,CD,CD-SK,Kamakombe,
3057,FZNA,GOM,Goma International Airport,-1.666758,29.238037,AF,CD,CD-NK,Goma,
3058,FZOA,KND,Kindu Airport,-2.919179916,25.91539955,AF,CD,CD-MA,Kindu,
3059,FZQA,FBM,Lubumbashi International Airport,-11.591494,27.530753,AF,CD,CD-HK,Lubumbashi,
3060,FZQM,KWZ,Kolwezi Airport,-10.7659,25.505699,AF,CD,CD-LU,Kolwezi,
3061,FZRF,FMI,Kalemie Airport,-5.87556,29.25,AF,CD,CD-TA,Kalemie,
3063,FZUA,KGA,Kananga Airport,-5.90005,22.4692,AF,CD,CD-KC,Kananga,
3064,FZWA,MJM,Mbuji Mayi Airport,-6.121240139,23.56900024,AF,CD,CD-KE,Mbuji Mayi,
3066,GABS,BKO,Modibo Keita International Airport,12.5335,-7.94994,AF,ML,ML-2,Bamako,
3067,GAGO,GAQ,Gao International Airport,16.248466,-0.005389,AF,ML,ML-7,Gao,
3068,GAKY,KYS,Kayes Dag Dag Airport,14.482521,-11.399335,AF,ML,ML-1,Kayes,
3069,GAMB,MZI,Mopti Airport,14.5128,-4.07956,AF,ML,ML-5,Sévaré,
3071,GATB,TOM,Tombouktou Airport,16.730499,-3.00758,AF,ML,ML-7,Timbuktu,
3076,GBYD,BJL,Banjul International Airport,13.338,-16.652201,AF,GM,GM-W,Yundum,
3077,GCFV,FUE,Fuerteventura Airport,28.4527,-13.8638,AF,ES,ES-CN,El Matorral,
3079,GCHI,VDE,El Hierro Airport,27.8148,-17.8871,AF,ES,ES-CN,El Hierro Island,
3080,GCLA,SPC,La Palma Airport,28.626499,-17.7556,AF,ES,ES-CN,"Sta Cruz de la Palma, La Palma Island",
3081,GCLP,LPA,Gran Canaria Airport,27.9319,-15.3866,AF,ES,ES-CN,Gran Canaria Island,
3082,GCRR,ACE,César Manrique-Lanzarote Airport,28.945499,-13.6052,AF,ES,ES-CN,San Bartolomé,
3083,GCTS,TFS,Tenerife Sur Airport,28.0445,-16.5725,AF,ES,ES-CN,Tenerife,
3084,GCXO,TFN,Tenerife Norte-Ciudad de La Laguna Airport,28.482752,-16.341707,AF,ES,ES-CN,Tenerife,
3093,GEML,MLN,Melilla Airport,35.2798,-2.95626,AF,ES,ES-ML,Melilla,
31728,GFBO,KBS,Bo Airport,7.9444,-11.761,AF,SL,SL-S,Bo,
31741,GFKE,KEN,Kenema Airport,7.896364,-11.174126,AF,SL,SL-E,Kenema,
3095,GFLL,FNA,Lungi International Airport,8.61644,-13.1955,AF,SL,SL-N,Freetown (Lungi-Town),
32689,GFYE,WYE,Yengema Airport,8.61047,-11.0454,AF,SL,SL-E,Yengema,
3097,GGOV,OXB,Osvaldo Vieira International Airport,11.894262,-15.653596,AF,GW,GW-BS,Bissau,
429724,GL-0012,JJU,Qaqortoq Airport,60.76383,-46.065001,,GL,GL-KU,Qaqortoq,
32335,GLGE,SNI,Greenville/Sinoe Airport,5.032124,-9.064236,AF,LR,LR-SI,Greenville,
3098,GLMR,MLW,Spriggs Payne Airport,6.28906,-10.7587,AF,LR,LR-MO,Monrovia,
3099,GLRB,ROB,Roberts International Airport,6.23379,-10.3623,AF,LR,LR-MG,Monrovia,
3101,GMAD,AGA,Al Massira Airport,30.322478,-9.412003,AF,MA,MA-09,Agadir (Temsia),
3102,GMAT,TTA,Tan Tan Airport,28.447563,-11.161749,AF,MA,MA-10,Tan Tan,
429847,GMAZ,OZG,Zagora Airport,30.265788,-5.860808,AF,MA,MA-08,Zagora,
300605,GMFB,UAR,Bouarfa Airport,32.514306,-1.983056,AF,MA,MA-02,Bouarfa,
3103,GMFF,FEZ,Fes Saïss International Airport,33.927299,-4.97796,AF,MA,MA-03,Saïss,
3105,GMFK,ERH,Moulay Ali Cherif Airport,31.94750023,-4.398330212,AF,MA,MA-08,Errachidia,
3106,GMFM,MEK,Bassatine Airport,33.879101,-5.51512,AF,MA,MA-03,Meknes,
3107,GMFO,OUD,Oujda Angads Airport,34.789558,-1.926041,AF,MA,MA-02,Ahl Angad,
3108,GMMA,SMW,Smara Airport,26.731987,-11.683655,AF,EH,EH-U-A,Smara,
29694,GMMD,BEM,Beni Mellal Airport,32.401895,-6.315905,AF,MA,MA-05,Oulad Yaich,
3109,GMME,RBA,Rabat-Salé Airport,34.051498,-6.75152,AF,MA,MA-04,Rabat,
3110,GMMH,VIL,Dakhla Airport,23.7183,-15.932,AF,EH,EH-U-A,Dakhla,
3111,GMMI,ESU,Essaouira-Mogador Airport,31.397499,-9.68167,AF,MA,MA-07,Essaouira,
3112,GMML,EUN,Laayoune Hassan I International Airport,27.142467,-13.224947,AF,EH,EH-U-A,El Aaiún,
3113,GMMN,CMN,Mohammed V International Airport,33.3675,-7.58997,AF,MA,MA-06,Casablanca,
3114,GMMW,NDR,Nador Al Aaroui International Airport,34.9888,-3.02821,AF,MA,MA-02,Al Aaroui,
3115,GMMX,RAK,Marrakesh Menara Airport,31.604807,-8.035788,AF,MA,MA-07,Marrakesh,
3116,GMMY,NNA,Kenitra Air Base,34.298901,-6.59588,AF,MA,MA-04,Kenitra,
3117,GMMZ,OZZ,Ouarzazate International Airport,30.9391,-6.90943,AF,MA,MA-08,Ouarzazate,
3119,GMTA,AHU,Cherif Al Idrissi Airport,35.177101,-3.83952,AF,MA,MA-01,Al Hoceima,
3120,GMTN,TTU,Sania Ramel Airport,35.594299,-5.32002,AF,MA,MA-01,Tétouan,
3121,GMTT,TNG,Tangier Ibn Battuta Airport,35.731741,-5.921459,AF,MA,MA-01,Tangier,
325736,GOBD,DSS,Blaise Diagne International Airport,14.670878,-17.072829,AF,SN,SN-DK,Dakar,
3122,GOGG,ZIG,Ziguinchor Airport,12.55559,-16.283298,AF,SN,SN-ZG,Ziguinchor,
3123,GOGS,CSK,Cap Skirring Airport,12.39533,-16.748,AF,SN,SN-ZG,Cap Skirring,
3124,GOOK,KLC,Kaolack Airport,14.14690018,-16.05130005,AF,SN,SN-FK,Kaolack,
3125,GOOY,DKR,Léopold Sédar Senghor International Airport,14.742337,-17.479222,AF,SN,SN-DK,Dakar,
31879,GOSM,MAX,Ouro Sogui Airport,15.5936,-13.3228,AF,SN,SN-MT,Ouro Sogui,
3126,GOSS,XLS,Saint Louis Airport,16.049814,-16.461039,AF,SN,SN-SL,Saint Louis,
3127,GOTB,BXE,Bakel Airport,14.84729958,-12.46829987,AF,SN,SN-TC,Bakel,
3128,GOTK,KGG,Kédougou Airport,12.57229996,-12.22029972,AF,SN,SN-TC,Kédougou,
3129,GOTT,TUD,Tambacounda Airport,13.7368,-13.6531,AF,SN,SN-TC,Tambacounda,
323315,GQNO,NKC,Nouakchott–Oumtounsy International Airport,18.31,-15.969722,AF,MR,MR-NKC,Nouakchott,
3137,GQPA,ATR,Atar International Airport,20.505823,-13.043744,AF,MR,MR-07,Atar,
3138,GQPP,NDB,Nouadhibou International Airport,20.932404,-17.030199,AF,MR,MR-08,Nouadhibou,
32135,GQPZ,OUZ,Tazadit Airport,22.757345,-12.482228,AF,MR,MR-11,Zouérate,
3146,GUCY,CKY,Ahmed Sékou Touré International Airport,9.57689,-13.612,AF,GN,GN-C,Conakry,
3150,GVAC,SID,Amílcar Cabral International Airport,16.7414,-22.9494,AF,CV,CV-B,Espargos,
3151,GVBA,BVC,Aristides Pereira International Airport,16.136499,-22.888901,AF,CV,CV-B,Rabil,
3152,GVMA,MMO,Maio Airport,15.1559,-23.21369934,AF,CV,CV-S,Vila do Maio,
3153,GVNP,RAI,Nelson Mandela International Airport,14.941126,-23.484728,AF,CV,CV-S,Praia,
3154,GVSN,SNE,Preguiça Airport,16.588852,-24.284132,AF,CV,CV-B,Preguiça,
3155,GVSV,VXE,Cesaria Evora International Airport,16.833363,-25.055308,AF,CV,CV-B,São Pedro,
3157,HAAB,ADD,Addis Ababa Bole International Airport,8.97789,38.799301,AF,ET,ET-AA,Addis Ababa,
3159,HAAM,AMH,Arba Minch Airport,6.03939,37.5905,AF,ET,ET-SN,Arba Minch,
3160,HAAX,AXU,Axum Airport,14.1468,38.7728,AF,ET,ET-TI,Axum,
3161,HABD,BJR,Bahir Dar Airport,11.6081,37.321602,AF,ET,ET-AM,Bahir Dar,
3162,HADR,DIR,Aba Tenna Dejazmach Yilma International Airport,9.623549,41.855027,AF,ET,ET-DD,Dire Dawa,
3163,HAGM,GMB,Gambela Airport,8.12876,34.563099,AF,ET,ET-GA,Gambela,
3164,HAGN,GDQ,Gondar Airport,12.5199,37.433998,AF,ET,ET-AM,Azezo,
3165,HAGO,GDE,Gode Airport,5.935130119,43.57860184,AF,ET,ET-SO,Gode,
300239,HAHM,QHR,Harar Meda Airport,8.7163,39.0059,AF,ET,ET-OR,Debre Zeyit,
313314,HAJJ,JIJ,Gerad Wilwal International Airport,9.331907,42.911811,AF,ET,ET-SO,Jijiga,
525781,HAJK,BCO,Jinka Airport,5.749655,36.560165,AF,ET,ET-SN,Jinka,
3166,HAJM,JIM,Jimma Airport,7.666090012,36.8166008,AF,ET,ET-OR,Jimma,
30612,HAKD,ABK,Kebri Dahar Airport,6.732577,44.241339,AF,ET,ET-SO,Kebri Dahar,
30664,HALA,AWA,Hawassa International Airport,7.100611,38.396455,AF,ET,ET-XSD,Hawassa,
3168,HAMK,MQX,Mekele Alula Aba Nega Airport,13.4674,39.533501,AF,ET,ET-TI,Mekele,
3169,HASO,ASO,Asosa Airport,10.01850033,34.5862999,AF,ET,ET-BE,Asosa,
3170,HBBA,BJM,Bujumbura Melchior Ndadaye International Airport,-3.32402,29.318501,AF,BI,BI-BM,Bujumbura,
31529,HBBE,GID,Gitega Airport,-3.417209,29.911308,AF,BI,BI-GI,Gitega,
30792,HCMF,BSA,Bender Qassim International Airport,11.275235,49.139231,AF,SO,SO-BR,Bosaso,
3171,HCMH,HGA,Egal International Airport,9.514082,44.083469,AF,SO,SO-WO,Hargeisa,
3172,HCMI,BBO,Berbera Airport,10.385035,44.936723,AF,SO,SO-WO,Berbera,
3173,HCMK,KMU,Kismayo Airport,-0.377353,42.459202,AF,SO,SO-JH,Kismayo,
31899,HCMM,MGQ,Aden Adde International Airport,2.01444,45.304699,AF,SO,SO-BN,Mogadishu,
3174,HDAM,JIB,Djibouti-Ambouli Airport,11.5473,43.1595,AF,DJ,DJ-DJ,Djibouti City,
2376,HE36,RDL,Bardawil International Airport,30.410714,33.15535,AS,EG,EG-SIN,El Hassana,
3175,HEAL,DBB,El Alamein International Airport,30.924324,28.46161,AF,EG,EG-MT,El Alamein,
3176,HEAR,AAC,El Arish International Airport,31.055324,33.827964,AS,EG,EG-SIN,El Arish,
3177,HEAT,ATZ,Asyut International Airport,27.045962,31.01276,AF,EG,EG-AST,Asyut,
3180,HEBA,HBE,Alexandria International Airport,30.93249,29.696437,AF,EG,EG-ALX,Alexandria,
3181,HEBL,ABS,Abu Simbel Airport,22.375924,31.611734,AF,EG,EG-ASN,Abu Simbel,
3183,HECA,CAI,Cairo International Airport,30.111534,31.396694,AF,EG,EG-C,Cairo,
2356,HECP,CCE,Capital International Airport,30.06465,31.839974,AF,EG,EG-C,New Cairo,
3186,HEGN,HRG,Hurghada International Airport,27.176776,33.796692,AF,EG,EG-BA,Hurghada,
3188,HEGR,EGH,El Jora Airport,31.078138,34.153131,AS,EG,EG-SIN,El Jora,
3191,HELX,LXR,Luxor International Airport,25.671018,32.706446,AF,EG,EG-LX,Luxor,
3192,HEMA,RMF,Marsa Alam International Airport,25.555548,34.59245,AF,EG,EG-BA,Marsa Alam,
3193,HEMM,MUH,Mersa Matruh International Airport,31.324313,27.22227,AF,EG,EG-MT,Marsa Matruh,
3196,HEPS,PSD,Port Said International Airport,31.279285,32.240582,AF,EG,EG-PTS,Port Said,
3197,HESC,SKV,Saint Catherine International Airport,28.684292,34.064409,AS,EG,EG-JS,Saint Catherine,
300893,HESG,HMB,Sohag International Airport,26.342515,31.743017,AF,EG,EG-SHG,Suhaj,
3198,HESH,SSH,Sharm El Sheikh International Airport,27.977272,34.394717,AS,EG,EG-JS,Sharm El Sheikh,
3199,HESN,ASW,Aswan International Airport,23.961075,32.820382,AF,EG,EG-ASN,Aswan,
335334,HESX,SPX,Sphinx International Airport,30.108179,30.895728,AF,EG,EG-GZ,Al Jiza,
3200,HETB,TCP,Taba International Airport,29.594496,34.775752,AS,EG,EG-JS,Taba,
3202,HHAS,ASM,Asmara International Airport,15.2919,38.910702,AF,ER,ER-SK,Asmara,
3203,HHMS,MSW,Massawa International Airport,15.67,39.370098,AF,ER,ER-SK,Massawa,
3204,HHSB,ASA,Assab International Airport,13.0718,42.645,AF,ER,ER-DK,Assab,
3247,HJJJ,JUB,Juba International Airport,4.87201,31.601101,AF,SS,SS-EC,Juba,
28481,HKAM,ASV,Amboseli Airport,-2.644786,37.252922,AF,KE,KE-34,Ol Tukai,
3205,HKEL,EDL,Eldoret International Airport,0.404458,35.238899,AF,KE,KE-27,Eldoret,
3206,HKJK,NBO,Jomo Kenyatta International Airport,-1.318886,36.928233,AF,KE,KE-47,Nairobi,
3208,HKKI,KIS,Kisumu International Airport,-0.086139,34.728901,AF,KE,KE-42,Kisumu,
3209,HKKT,KTL,Kitale Airport,0.971989,34.958599,AF,KE,KE-26,Kitale,
3210,HKLK,LKG,Lokichogio Airport,4.20412,34.348202,AF,KE,KE-23,Lokichogio,
3211,HKLO,LOK,Lodwar Airport,3.12197,35.6087,AF,KE,KE-23,Lodwar,
3212,HKLU,LAU,Manda Airport,-2.252431,40.912892,AF,KE,KE-05,Lamu,
31988,HKML,MYD,Malindi International Airport,-3.22931,40.1017,AF,KE,KE-03,Malindi,
3213,HKMO,MBA,Moi International Airport,-4.03483,39.5942,AF,KE,KE-01,Mombasa,
31594,HKMS,MRE,Mara Serena Lodge Airstrip,-1.404588,35.008349,AF,KE,KE-33,Serena,
28485,HKNK,NUU,Nakuru Lanet Airport,-0.298419,36.159193,AF,KE,KE-32,Nakuru,
32066,HKNL,NYK,Nanyuki Civil Airport,-0.062352,37.041296,AF,KE,KE-19,Gathiuru,
3215,HKNW,WIL,Nairobi Wilson Airport,-1.32172,36.8148,AF,KE,KE-47,Nairobi,
3217,HKWJ,WJR,Wajir Airport,1.73324,40.091599,AF,KE,KE-08,Wajir,
3219,HLGD,SRX,Sirt International Airport / Ghardabiya Airbase,31.058578,16.597095,AF,LY,LY-SR,Sirt,
3221,HLGT,GHT,Ghat Airport,25.14559937,10.14260006,AF,LY,LY-GT,Ghat,
3222,HLKF,AKF,Kufra Airport,24.17869949,23.31399918,AF,LY,LY-KF,Kufra,
3223,HLLB,BEN,Benina International Airport,32.096802,20.269501,AF,LY,LY-BA,Benina,
3224,HLLM,MJI,Mitiga International Airport,32.89177,13.287878,AF,LY,LY-TB,Tripoli,
3225,HLLQ,LAQ,Al Abraq International Airport,32.789036,21.954864,AF,LY,LY-JA,Al Albraq,
3226,HLLS,SEB,Sabha Airport,26.992452,14.466162,AF,LY,LY-SB,Sabha,
3228,HLMB,LMQ,Marsa al Brega Airport,30.378099,19.576401,AF,LY,LY-WA,Marsa al Brega,
3232,HLTD,LTD,Ghadames Airport,30.145484,9.702095,AF,LY,LY-NL,Ghadames,
3236,HRYG,GYI,Gisenyi Airport,-1.6772,29.2589,AF,RW,RW-04,Gisenyi,
3237,HRYR,KGL,Kigali International Airport,-1.96863,30.1395,AF,RW,RW-01,Kigali,
3238,HRZA,KME,Kamembe Airport,-2.462239981,28.90789986,AF,RW,RW-04,Kamembe,
3239,HSDN,DOG,Dongola Airport,19.153666,30.430069,AF,SD,SD-01,Dongola,
3241,HSFS,ELF,El Fasher Airport,13.61489964,25.32460022,AF,SD,SD-02,El Fasher,
3242,HSKA,KSL,Kassala Airport,15.38749981,36.3288002,AF,SD,SD-05,Kassala,
300673,HSMN,MWE,Merowe Airport,18.443333,31.843333,AF,SD,SD-01,Merowe,
3244,HSNN,UYL,Nyala Airport,12.0535,24.9562,AF,SD,SD-11,Nyala,
3245,HSOB,EBD,El-Obeid Airport,13.1532,30.2327,AF,SD,SD-09,El-Obeid,
3246,HSPN,PZU,Port Sudan New International Airport,19.434558,37.234125,AF,SD,SD-26,Port Sudan,
3249,HSSK,KRT,Khartoum International Airport,15.5895,32.5532,AF,SD,SD-03,Khartoum,
3248,HSSM,MAK,Malakal International Airport,9.558739,31.651937,AF,SS,SS-NU,Malakal,
30553,HSWW,WUU,Wau Airport,7.72583,27.975,AF,SS,SS-BW,Wau,
3250,HTAR,ARK,Arusha Airport,-3.367789984,36.63330078,AF,TZ,TZ-01,Arusha,
3251,HTDA,DAR,Julius Nyerere International Airport,-6.873499,39.207288,AF,TZ,TZ-02,Dar es Salaam,
3252,HTDO,DOD,Dodoma Airport,-6.170559,35.756036,AF,TZ,TZ-03,Dodoma,
318875,HTGW,MBI,Songwe Airport,-8.919942,33.273981,AF,TZ,TZ-14,Mbeya,
3253,HTIR,IRI,Iringa Airport,-7.66863,35.752102,AF,TZ,TZ-04,Nduli,
3254,HTKJ,JRO,Kilimanjaro International Airport,-3.427049,37.07353,AF,TZ,TZ-01,Arusha,
3255,HTLM,LKY,Lake Manyara Airport,-3.37631,35.818298,AF,TZ,TZ-26,Lake Manyara National Park,
3256,HTMT,MYW,Mtwara Airport,-10.336204,40.181997,AF,TZ,TZ-17,Mtwara,
3257,HTMW,MWZ,Mwanza International Airport,-2.446563,32.936049,AF,TZ,TZ-18,Mwanza,
3258,HTPE,PMA,Pemba Airport,-5.25726,39.811401,AF,TZ,TZ-25,Chake Chake,
3259,HTTG,TGT,Tanga Airport,-5.09236,39.071201,AF,TZ,TZ-25,Tanga,
3260,HTZA,ZNZ,Abeid Amani Karume International Airport,-6.22202,39.224899,AF,TZ,TZ-07,Zanzibar,
32234,HUAR,RUA,Arua Airport,3.049152,30.911714,AF,UG,UG-N,Arua,
3263,HUEN,EBB,Entebbe International Airport,0.042386,32.443501,AF,UG,UG-C,Entebbe,
3264,HUGU,ULU,Gulu Airport,2.805560112,32.27180099,AF,UG,UG-N,Gulu,
3265,HUSO,SRT,Soroti Airport,1.727689981,33.62279892,AF,UG,UG-E,Soroti,
351149,HZU,HZU,Chengdu Huaizhou Airport,30.677339,104.529397,AS,CN,CN-51,Chengdu (Jintang),
27302,IBL,IBL,Indigo Bay Lodge Airport,-21.708,35.452801,AF,MZ,MZ-I,Bazaruto Island,
507227,ID-0277,DHX,Dhoho International Airport,-7.749527,111.946831,AS,ID,ID-JI,Kediri,
29639,ID-ZGP,UGU,Bilorai Airport,-3.739503,137.031183,AS,ID,ID-PT,Bilogai,ZGP
46512,IN-0025,AYJ,Maharshi Valmiki International Airport,26.747736,82.163664,AS,IN,IN-UP,Faizabad,
331218,IN-0107,SDW,Sindhudurg Airport,16.002552,73.529846,AS,IN,IN-MM,Chipi,
342093,IN-0276,NMI,Navi Mumbai International Airport,18.984597,73.065253,AS,IN,IN-MM,Navi Mumbai,
354545,IN-0301,RQY,Rashtrakavi Kuvempu Airport,13.858024,75.618868,AS,IN,IN-KA,Shimoga,
354546,IN-0308,HGI,Itanagar Donyi Polo Hollongi Airport,26.96683,93.638792,AS,IN,IN-AR,Hollongi,
597786,IN-0392,DXN,Noida International Airport,28.179868,77.611843,AS,IN,IN-UP,Gautam Buddha Nagar,
598586,IN-0393,AHA,Maa Mahamaya Airport,22.98753,83.19612,AS,IN,IN-CT,Ambikapur,
18945,K61B,BLD,Boulder City Municipal Airport,35.947161,-114.858799,,US,US-NV,Boulder City,BVU
18966,K67L,MFH,Mesquite Airport,36.833105,-114.055928,,US,US-NV,Mesquite,67L
3356,KABE,ABE,Lehigh Valley International Airport,40.651773,-75.442797,,US,US-PA,Allentown/Bethlehem,ABE
3357,KABI,ABI,Abilene Regional Airport,32.41130066,-99.68190002,,US,US-TX,Abilene,ABI
16091,KABQ,ABQ,Albuquerque International Sunport,35.039976,-106.608925,,US,US-NM,Albuquerque,ABQ
3358,KABR,ABR,Aberdeen Regional Airport,45.44910049,-98.42179871,,US,US-SD,Aberdeen,ABR
3359,KABY,ABY,Southwest Georgia Regional Airport,31.532946,-84.196215,,US,US-GA,Albany,ABY
3360,KACK,ACK,Nantucket Memorial Airport,41.25310135,-70.06020355,,US,US-MA,Nantucket,ACK
3361,KACT,ACT,Waco Regional Airport,31.61129951,-97.23049927,,US,US-TX,Waco,ACT
3362,KACV,ACV,California Redwood Coast-Humboldt County Airport,40.978101,-124.109,,US,US-CA,Arcata/Eureka,ACV
3363,KACY,ACY,Atlantic City International Airport,39.456201,-74.577511,,US,US-NJ,Atlantic City,ACY
19235,KADH,ADT,Ada Regional Airport,34.805214,-96.671988,,US,US-OK,Ada,ADH
3364,KADW,ADW,Joint Base Andrews,38.810799,-76.866997,,US,US-MD,Camp Springs,ADW
3365,KAEX,AEX,Alexandria International Airport,31.325828,-92.546702,,US,US-LA,Alexandria,AEX
3366,KAFW,AFW,Perot Field/Fort Worth Alliance Airport,32.99044,-97.31947,,US,US-TX,Fort Worth,AFW
3367,KAGC,AGC,Allegheny County Airport,40.354401,-79.930199,,US,US-PA,Pittsburgh,AGC
3368,KAGS,AGS,Augusta Regional At Bush Field,33.3699,-81.9645,,US,US-GA,Augusta,AGS
3369,KAHN,AHN,Athens Ben Epps Airport,33.948842,-83.325634,,US,US-GA,Athens,AHN
19257,KAIA,AIA,Alliance Municipal Airport,42.052543,-102.803965,,US,US-NE,Alliance,AIA
3370,KAKR,AKC,Akron Fulton International Airport,41.037355,-81.46784,,US,US-OH,Akron,AKR
3371,KALB,ALB,Albany International Airport,42.748299,-73.801697,,US,US-NY,Albany,ALB
3372,KALI,ALI,Alice International Airport,27.7409,-98.026901,,US,US-TX,Alice,ALI
3373,KALM,ALM,Alamogordo White Sands Regional Airport,32.837818,-105.993149,,US,US-NM,Alamogordo,ALM
3374,KALN,ALN,St Louis Regional Airport,38.89030075,-90.04599762,,US,US-IL,Alton/St Louis,ALN
3375,KALO,ALO,Waterloo Regional Airport,42.55709839,-92.40029907,,US,US-IA,Waterloo,ALO
19275,KALS,ALS,San Luis Valley Regional Airport/Bergman Field,37.434898,-105.866997,,US,US-CO,Alamosa,ALS
3376,KALW,ALW,Walla Walla Regional Airport,46.09489822,-118.288002,,US,US-WA,Walla Walla,ALW
3377,KAMA,AMA,Rick Husband Amarillo International Airport,35.217857,-101.706444,,US,US-TX,Amarillo,AMA
3378,KANB,ANB,Anniston Regional Airport,33.5882,-85.8581,,US,US-AL,Anniston,ANB
3379,KAND,AND,Anderson Regional Airport,34.49459839,-82.70939636,,US,US-SC,Anderson,AND
3380,KAOO,AOO,Altoona Blair County Airport,40.296398,-78.32,,US,US-PA,Altoona,AOO
19291,KAPA,APA,Centennial Airport,39.57009888,-104.848999,,US,US-CO,Denver,APA
19293,KAPF,APF,Naples Municipal Airport,26.15259933,-81.77529907,,US,US-FL,Naples,APF
3381,KAPG,APG,Phillips Army Air Field,39.466202,-76.1688,,US,US-MD,Aberdeen,APG
3382,KAPN,APN,Alpena County Regional Airport,45.0780983,-83.56030273,,US,US-MI,Alpena,APN
19301,KARA,ARA,Acadiana Regional Airport,30.0378,-91.883904,,US,US-LA,New Iberia,ARA
3383,KART,ART,Watertown International Airport,43.991901,-76.021698,,US,US-NY,Watertown,ART
19308,KASE,ASE,Aspen-Pitkin County Airport (Sardy Field),39.223202,-106.869003,,US,US-CO,Aspen,ASE
19314,KAST,AST,Astoria Regional Airport,46.15800095,-123.8789978,,US,US-OR,Astoria,AST
3384,KATL,ATL,Hartsfield Jackson Atlanta International Airport,33.6367,-84.428101,,US,US-GA,Atlanta,ATL
19320,KATW,ATW,Appleton International Airport,44.258515,-88.519,,US,US-WI,Appleton,ATW
3385,KATY,ATY,Watertown Regional Airport,44.91400146,-97.15470123,,US,US-SD,Watertown,ATY
19321,KAUG,AUG,Augusta State Airport,44.3205986,-69.79730225,,US,US-ME,Augusta,AUG
3386,KAUS,AUS,Austin Bergstrom International Airport,30.197535,-97.662015,,US,US-TX,Austin,AUS
19326,KAUW,AUW,Wausau Downtown Airport,44.92620087,-89.62660217,,US,US-WI,Wausau,AUW
3387,KAVL,AVL,Asheville Regional Airport,35.435488,-82.541853,,US,US-NC,Asheville,AVL
3388,KAVP,AVP,Wilkes-Barre/Scranton International Airport,41.337064,-75.724232,,US,US-PA,Wilkes-Barre/Scranton,AVP
3389,KAXN,AXN,Chandler Field,45.866299,-95.394699,,US,US-MN,Alexandria,AXN
3390,KAZO,AZO,Kalamazoo/Battle Creek International Airport,42.232105,-85.549637,,US,US-MI,Kalamazoo,AZO
3391,KBAB,BAB,Beale Air Force Base,39.136101,-121.436996,,US,US-CA,Beale Air Force Base,BAB
3392,KBAD,BAD,Barksdale Air Force Base,32.501801,-93.662697,,US,US-LA,Bossier City,BAD
3393,KBAF,BAF,Westfield-Barnes Regional Airport,42.157799,-72.715599,,US,US-MA,Westfield,BAF
3394,KBAK,CLU,Columbus Municipal Airport,39.262386,-85.895576,,US,US-IN,Columbus,BAK
19353,KBBD,BBD,Curtis Field,31.178931,-99.324732,,US,US-TX,Brady,BBD
45961,KBBG,BKG,Branson Airport,36.532082,-93.200544,,US,US-MO,Branson,BBG
19357,KBCE,BCE,Bryce Canyon Airport,37.70640183,-112.1449966,,US,US-UT,Bryce Canyon,BCE
19359,KBCT,BCT,Boca Raton Airport,26.3785,-80.107697,,US,US-FL,Boca Raton,BCT
3395,KBDE,BDE,Baudette International Airport,48.728401,-94.612198,,US,US-MN,Baudette,BDE
3396,KBDL,BDL,Bradley International Airport,41.938555,-72.688016,,US,US-CT,Hartford,BDL
3397,KBDR,BDR,Igor I Sikorsky Memorial Airport,41.163502,-73.126198,,US,US-CT,Bridgeport,BDR
3398,KBED,BED,Laurence G Hanscom Field,42.470001,-71.289001,,US,US-MA,Bedford,BED
3399,KBFD,BFD,Bradford Regional Airport,41.80310059,-78.64009857,,US,US-PA,Bradford,BFD
3400,KBFF,BFF,Western Neb. Rgnl/William B. Heilig Airport,41.87400055,-103.5960007,,US,US-NE,Scottsbluff,BFF
3401,KBFI,BFI,King County International Airport - Boeing Field,47.527042,-122.29995,,US,US-WA,Seattle,BFI
3402,KBFL,BFL,Meadows Field,35.433601,-119.056999,,US,US-CA,Bakersfield,BFL
3403,KBFM,BFM,Mobile Downtown Airport,30.62680054,-88.06809998,,US,US-AL,Mobile,BFM
3404,KBGM,BGM,Greater Binghamton/Edwin A Link field,42.20869827,-75.97979736,,US,US-NY,Binghamton,BGM
3405,KBGR,BGR,Bangor International Airport,44.806364,-68.826668,,US,US-ME,Bangor,BGR
19373,KBHB,BHB,Hancock County-Bar Harbor Airport,44.45000076,-68.3615036,,US,US-ME,Bar Harbor,BHB
3406,KBHM,BHM,Birmingham-Shuttlesworth International Airport,33.562877,-86.750712,,US,US-AL,Birmingham,BHM
3407,KBIF,BIF,Biggs Army Air Field (Fort Bliss),31.84950066,-106.3799973,,US,US-TX,Fort Bliss/El Paso,BIF
19377,KBIH,BIH,Eastern Sierra Regional Airport,37.3731,-118.363998,,US,US-CA,Bishop,BIH
3408,KBIL,BIL,Billings Logan International Airport,45.808932,-108.541242,,US,US-MT,Billings,BIL
3409,KBIS,BIS,Bismarck Municipal Airport,46.772734,-100.746874,,US,US-ND,Bismarck,BIS
3410,KBIX,BIX,Keesler Air Force Base,30.41040039,-88.92440033,,US,US-MS,Biloxi,BIX
3411,KBJC,BJC,Rocky Mountain Metropolitan Airport,39.908798,-105.116997,,US,US-CO,Denver,BJC
19380,KBJI,BJI,Bemidji Regional Airport,47.50939941,-94.93370056,,US,US-MN,Bemidji,BJI
3412,KBKE,BKE,Baker City Municipal Airport,44.83729935,-117.8089981,,US,US-OR,Baker City,BKE
3413,KBKF,BFK,Buckley Space Force Base,39.701698,-104.751999,,US,US-CO,Aurora,BKF
3414,KBKL,BKL,Burke Lakefront Airport,41.51750183,-81.6832962,,US,US-OH,Cleveland,BKL
3415,KBKW,BKW,Raleigh County Memorial Airport,37.7873,-81.124199,,US,US-WV,Beaver,BKW
19387,KBLF,BLF,Mercer County Airport,37.295799,-81.207703,,US,US-WV,Bluefield,BLF
19388,KBLH,BLH,Blythe Airport,33.61920166,-114.7170029,,US,US-CA,Blythe,BLH
3416,KBLI,BLI,Bellingham International Airport,48.7928009,-122.538002,,US,US-WA,Bellingham,BLI
3417,KBLV,BLV,Scott AFB/Midamerica Airport,38.5452,-89.835197,,US,US-IL,Belleville,BLV
3418,KBMG,BMG,Monroe County Airport,39.14599991,-86.61669922,,US,US-IN,Bloomington,BMG
3419,KBMI,BMI,Central Illinois Regional Airport at Bloomington-Normal,40.4771,-88.915901,,US,US-IL,Bloomington/Normal,BMI
3420,KBNA,BNA,Nashville International Airport,36.1245,-86.6782,,US,US-TN,Nashville,BNA
19397,KBNO,BNO,Burns Municipal Airport,43.590463,-118.955154,,US,US-OR,Burns,BNO
3421,KBOI,BOI,Boise Air Terminal/Gowen Field,43.5644,-116.223,,US,US-ID,Boise,BOI
3422,KBOS,BOS,Boston Logan International Airport,42.36197,-71.0079,,US,US-MA,Boston,BOS
19401,KBPI,BPI,Miley Memorial Field,42.58509827,-110.1110001,,US,US-WY,Big Piney,BPI
19402,KBPK,WMH,Ozark Regional Airport,36.3689003,-92.47049713,,US,US-AR,Mountain Home,BPK
3423,KBPT,BPT,Jack Brooks Regional Airport,29.9508,-94.020699,,US,US-TX,Beaumont/Port Arthur,BPT
3424,KBQK,BQK,Brunswick Golden Isles Airport,31.258801,-81.466499,,US,US-GA,Brunswick,BQK
19406,KBRD,BRD,Brainerd Lakes Regional Airport,46.402861,-94.129727,,US,US-MN,Brainerd,BRD
3425,KBRL,BRL,Southeast Iowa Regional Airport,40.78319931,-91.12550354,,US,US-IA,Burlington,BRL
3426,KBRO,BRO,Brownsville South Padre Island International Airport,25.907238,-97.425235,,US,US-TX,Brownsville,BRO
3427,KBTL,BTL,Battle Creek Executive Airport at Kellogg Field,42.307301,-85.251503,,US,US-MI,Battle Creek,BTL
3428,KBTM,BTM,Bert Mooney Airport,45.95479965,-112.4970016,,US,US-MT,Butte,BTM
3429,KBTR,BTR,Baton Rouge Metropolitan Airport,30.533199,-91.149597,,US,US-LA,Baton Rouge,BTR
